,timestamp,pitch,roll,yaw,vgx,vgy,vgz,templ,temph,tof,height,battery,barometer,time,agx,agy,agz
0,1589373400219,0,0,0,0,0,0,60,62,10,0,99,-1.03,0,-3.00,-12.00,-996.00
1,1589373400234,0,0,0,0,0,0,60,62,10,0,99,-1.03,0,10.00,-4.00,-997.00
2,1589373400240,0,0,0,0,0,0,60,62,10,0,99,-1.03,0,9.00,-25.00,-1010.00
3,1589373400245,0,0,0,0,0,0,60,62,10,0,99,-1.03,0,-8.00,-43.00,-1003.00
4,1589373400251,0,0,0,0,0,0,60,62,10,0,99,-1.03,0,44.00,-11.00,-1153.00
5,1589373400256,0,0,0,0,0,-2,60,62,10,0,99,-1.03,0,-2.00,-30.00,-1405.00
6,1589373400261,0,0,0,0,0,-5,60,62,11,0,99,-1.03,0,31.00,-6.00,-1143.00
7,1589373400266,0,0,0,0,0,-7,60,62,18,0,99,-0.76,0,32.00,3.00,-1029.00
8,1589373400271,1,0,0,0,0,-7,60,62,27,10,99,-0.69,0,9.00,5.00,-1026.00
9,1589373400276,1,0,0,0,0,-7,60,62,37,10,99,-0.52,0,15.00,1.00,-947.00
10,1589373400280,1,0,0,0,0,-7,60,62,45,20,99,-0.56,1,-4.00,-1.00,-944.00
11,1589373400285,1,0,0,0,0,-6,60,62,51,30,99,-0.54,1,3.00,5.00,-884.00
12,1589373400290,1,0,0,0,0,-4,60,62,58,30,99,-0.53,1,18.00,7.00,-927.00
13,1589373400295,0,0,0,0,0,-3,60,62,63,30,99,-0.56,1,-2.00,12.00,-932.00
14,1589373400300,0,0,0,0,0,-2,60,62,69,40,99,-0.13,1,0.00,7.00,-926.00
15,1589373400304,0,0,0,0,0,-2,60,62,72,40,99,-0.29,1,23.00,11.00,-943.00
16,1589373400309,0,0,0,0,0,-1,60,62,76,40,99,-0.34,1,-1.00,8.00,-925.00
17,1589373400314,0,0,0,0,0,-1,61,63,80,40,99,-0.03,1,17.00,10.00,-968.00
18,1589373400319,0,-1,0,0,0,0,61,63,83,50,99,-0.48,1,19.00,14.00,-1016.00
19,1589373400324,0,0,0,0,0,0,61,63,85,50,98,-0.45,1,7.00,13.00,-969.00
20,1589373400329,0,0,0,0,0,0,61,63,86,50,98,-0.32,2,5.00,8.00,-991.00
21,1589373400334,0,0,0,0,0,0,61,63,88,50,98,-0.43,2,28.00,5.00,-960.00
22,1589373400339,0,0,0,0,0,0,61,63,90,50,98,-0.14,2,23.00,10.00,-974.00
23,1589373400344,0,0,0,0,0,0,61,63,91,50,98,-0.18,2,33.00,-1.00,-944.00
24,1589373400349,0,0,0,0,0,0,61,63,92,60,98,0.07,2,13.00,22.00,-1058.00
25,1589373400354,0,0,0,0,0,0,61,63,93,60,98,0.05,2,31.00,5.00,-963.00
26,1589373400359,0,0,0,0,0,0,61,63,94,60,98,-0.21,2,-2.00,9.00,-1007.00
27,1589373400364,0,0,0,0,0,0,62,63,94,60,98,-0.08,2,3.00,-3.00,-964.00
28,1589373400368,0,0,0,0,0,0,62,63,94,60,98,-0.18,2,21.00,12.00,-944.00
29,1589373400373,0,0,0,0,0,0,62,63,93,60,98,-0.20,2,13.00,2.00,-950.00
30,1589373400378,0,0,0,0,0,1,62,63,92,60,98,0.04,3,29.00,3.00,-963.00
31,1589373400383,0,0,0,0,0,1,62,63,91,60,98,-0.14,3,9.00,6.00,-995.00
32,1589373400388,0,0,0,0,0,0,62,63,90,60,98,-0.21,3,-9.00,11.00,-1023.00
33,1589373400392,0,0,0,0,0,0,62,63,89,60,98,-0.15,3,37.00,-6.00,-939.00
34,1589373400397,0,0,0,0,0,1,62,63,87,60,98,-0.04,3,-1.00,-3.00,-1005.00
35,1589373400402,0,0,0,0,0,0,62,63,86,60,98,-0.23,3,20.00,0.00,-990.00
36,1589373400407,0,0,0,0,0,0,62,63,84,60,98,-0.14,3,3.00,-13.00,-987.00
37,1589373400412,0,0,0,0,0,1,62,64,83,60,98,0.05,3,11.00,-21.00,-1014.00
38,1589373400416,0,0,0,0,0,0,62,64,82,50,98,-0.41,3,24.00,-14.00,-970.00
39,1589373400421,0,0,0,0,0,1,62,64,81,50,97,-0.13,3,-7.00,-15.00,-1078.00
40,1589373400426,0,0,0,0,0,0,62,64,80,50,97,-0.20,4,0.00,1.00,-1056.00
41,1589373400431,0,0,0,0,0,0,62,64,79,50,97,0.03,4,40.00,-3.00,-954.00
42,1589373400436,0,0,0,0,0,0,62,64,78,50,97,0.16,4,-19.00,-17.00,-1096.00
43,1589373400441,0,1,0,0,0,0,62,64,76,50,97,-0.26,4,-5.00,-14.00,-1042.00
44,1589373400446,0,0,0,0,0,0,62,65,84,50,95,-0.35,8,-25.00,-10.00,-1014.00
45,1589373400450,-1,0,0,0,0,0,62,65,83,50,95,-0.47,8,-25.00,-16.00,-990.00
46,1589373400455,-1,0,0,0,0,0,62,65,83,50,95,-0.16,8,7.00,-10.00,-1004.00
47,1589373400460,-1,0,0,0,0,0,62,65,83,50,95,-0.45,8,-39.00,-15.00,-995.00
48,1589373400465,-1,0,0,0,0,0,62,65,83,50,95,-0.20,8,7.00,-9.00,-984.00
49,1589373400470,0,0,0,0,0,0,62,65,83,50,95,-0.32,8,-12.00,-6.00,-1011.00
50,1589373400475,0,0,0,0,0,0,62,65,83,50,95,-0.31,8,-11.00,-6.00,-1011.00
51,1589373400479,0,0,0,0,0,0,62,65,83,50,95,-0.26,8,-8.00,2.00,-985.00
52,1589373400484,0,0,0,0,0,0,62,65,83,50,95,-0.54,8,6.00,-6.00,-1007.00
53,1589373400489,0,0,0,0,0,0,62,65,83,50,95,-0.40,9,0.00,-12.00,-988.00
54,1589373400494,-1,0,0,0,0,0,62,65,83,50,95,-0.39,9,-8.00,-10.00,-991.00
55,1589373400499,-1,0,0,0,0,0,62,65,83,50,95,-0.52,9,-30.00,2.00,-997.00
56,1589373400503,-1,0,0,0,0,0,62,65,83,50,95,-0.05,9,1.00,-1.00,-982.00
57,1589373400508,-1,0,0,0,0,0,62,65,83,50,95,-0.28,9,3.00,-9.00,-975.00
58,1589373400513,-1,0,0,0,0,0,62,65,83,50,95,-0.14,9,-5.00,0.00,-1030.00
59,1589373400518,0,0,0,0,0,0,62,65,82,50,95,-0.24,9,-30.00,-13.00,-987.00
60,1589373400523,-1,0,0,0,0,0,63,65,82,50,95,-0.07,9,-39.00,-24.00,-974.00
61,1589373400528,-1,0,0,0,0,0,63,65,82,50,95,-0.10,9,-13.00,1.00,-1028.00
62,1589373400532,-1,0,0,0,0,0,63,65,82,50,94,0.12,9,-5.00,-32.00,-948.00
63,1589373400537,-1,0,0,0,0,0,63,65,81,50,94,-0.11,10,0.00,-25.00,-953.00
64,1589373400542,0,0,0,0,0,0,63,65,81,50,94,-0.29,10,-24.00,-29.00,-1037.00
65,1589373400547,0,0,0,0,0,0,63,65,81,50,94,-0.36,10,-18.00,-17.00,-973.00
66,1589373400552,-1,1,0,0,0,0,63,65,81,50,94,-0.19,10,-28.00,-18.00,-1008.00
67,1589373400557,0,1,0,0,0,0,63,65,81,50,94,-0.28,10,-28.00,-23.00,-1006.00
68,1589373400562,-1,0,0,0,0,0,63,65,81,50,94,-0.05,10,-13.00,-12.00,-997.00
69,1589373400566,-1,1,0,0,0,0,63,65,81,50,94,-0.07,10,-8.00,-5.00,-965.00
70,1589373400571,-1,0,0,0,0,0,63,65,81,50,94,-0.20,10,-20.00,-4.00,-1020.00
71,1589373400576,-1,0,0,0,0,0,63,65,81,50,94,-0.22,10,-20.00,-1.00,-1008.00
72,1589373400581,-1,0,0,0,0,0,63,65,82,50,94,-0.32,10,-42.00,-6.00,-988.00
73,1589373400586,-1,0,0,0,0,0,63,65,82,50,94,-0.06,11,-18.00,-8.00,-978.00
74,1589373400591,-1,0,0,0,0,0,63,65,82,50,94,0.05,11,-7.00,6.00,-945.00
75,1589373400596,-1,0,0,0,0,0,63,65,82,50,94,0.10,11,-1.00,-10.00,-972.00
76,1589373400601,0,0,0,0,0,0,63,65,82,50,94,0.11,11,-25.00,0.00,-1028.00
77,1589373400606,0,0,0,0,0,0,63,65,82,50,94,-0.43,11,6.00,14.00,-1044.00
78,1589373400611,0,0,0,0,0,0,63,65,82,50,94,0.05,11,-8.00,2.00,-977.00
79,1589373400615,0,0,0,0,0,0,63,65,81,50,94,-0.29,11,13.00,-1.00,-990.00
80,1589373400620,0,0,0,0,0,0,63,66,81,50,94,-0.20,11,-16.00,5.00,-1021.00
81,1589373400625,0,0,0,0,0,0,63,66,81,50,94,0.08,11,-24.00,0.00,-1007.00
82,1589373400630,0,0,0,0,0,0,63,66,81,50,94,-0.13,11,5.00,12.00,-963.00
83,1589373400635,0,0,0,0,0,0,63,66,81,50,94,-0.24,12,-34.00,-8.00,-1001.00
84,1589373400640,0,0,0,0,0,0,63,66,80,50,94,-0.15,12,0.00,0.00,-991.00
85,1589373400645,0,0,0,0,0,0,63,66,80,50,94,-0.06,12,25.00,3.00,-920.00
86,1589373400650,0,0,0,0,0,0,63,66,80,50,94,0.05,12,-7.00,-2.00,-940.00
87,1589373400655,0,0,0,0,0,0,63,66,79,50,94,-0.36,12,3.00,8.00,-986.00
88,1589373400660,0,0,0,0,0,0,63,66,79,50,94,-0.14,12,-21.00,-6.00,-993.00
89,1589373400665,0,0,0,0,0,0,63,66,79,50,94,-0.01,12,2.00,-9.00,-935.00
90,1589373400669,-1,0,0,0,0,0,64,66,79,50,94,0.16,12,-29.00,2.00,-1070.00
91,1589373400675,-1,0,0,0,0,0,64,66,79,50,94,0.06,12,-20.00,-14.00,-1007.00
92,1589373400679,0,0,0,0,0,0,64,66,80,50,94,-0.11,12,-30.00,-18.00,-1019.00
93,1589373400684,0,0,0,0,0,0,64,66,80,50,94,0.21,13,-4.00,3.00,-1050.00
94,1589373400689,0,0,0,0,0,0,64,66,80,50,94,-0.33,13,-31.00,0.00,-1032.00
95,1589373400694,0,0,0,0,0,0,64,66,81,50,94,0.07,13,-17.00,-22.00,-965.00
96,1589373400699,-1,0,0,0,0,0,64,66,81,50,94,-0.01,13,10.00,-1.00,-960.00
97,1589373400704,-1,0,0,0,0,0,64,66,81,50,94,-0.12,13,-19.00,-13.00,-1007.00
98,1589373400708,-1,0,0,0,0,0,64,66,81,50,94,-0.06,13,-5.00,-3.00,-1011.00
99,1589373400713,0,0,0,0,0,0,64,66,81,50,94,-0.14,13,-23.00,-19.00,-971.00
100,1589373400718,0,0,0,0,0,0,65,66,81,50,94,-0.06,13,-14.00,-9.00,-1006.00
101,1589373400723,-1,0,0,0,0,0,65,66,81,50,94,-0.39,13,-6.00,1.00,-950.00
102,1589373400728,-1,0,0,0,0,0,65,66,81,50,94,-0.23,13,-21.00,-17.00,-1007.00
103,1589373400733,-1,0,0,0,0,0,65,66,81,50,94,0.12,14,0.00,10.00,-964.00
104,1589373400738,-1,0,0,0,0,0,65,66,81,50,94,0.07,14,-11.00,3.00,-1037.00
105,1589373400742,0,0,0,0,0,0,65,66,82,50,94,-0.01,14,-17.00,0.00,-1011.00
106,1589373400747,0,0,0,0,0,0,65,66,82,50,94,-0.25,14,-26.00,0.00,-1059.00
107,1589373400752,0,0,0,0,0,0,65,66,82,50,94,-0.12,14,-14.00,1.00,-1004.00
108,1589373400757,0,0,0,0,0,0,65,66,83,50,94,-0.04,14,6.00,6.00,-986.00
109,1589373400762,0,0,0,0,0,0,65,66,83,50,94,0.07,14,-21.00,-6.00,-986.00
110,1589373400767,0,0,0,0,0,0,65,66,84,50,94,-0.20,14,0.00,4.00,-972.00
111,1589373400772,0,0,0,0,0,0,65,66,84,50,94,-0.12,14,-15.00,-2.00,-1051.00
112,1589373400777,0,0,0,0,0,0,65,66,84,50,94,-0.02,14,2.00,6.00,-999.00
113,1589373400782,0,0,0,0,0,0,65,66,84,50,94,0.13,15,-20.00,0.00,-1066.00
114,1589373400787,0,0,0,0,0,0,65,66,85,50,94,0.10,15,2.00,-16.00,-949.00
115,1589373400792,0,0,0,0,0,0,65,66,85,50,94,-0.22,15,-21.00,-16.00,-991.00
116,1589373400797,0,0,0,0,0,0,65,66,84,50,94,-0.04,15,-3.00,-26.00,-930.00
117,1589373400802,-1,0,0,0,0,0,65,66,84,50,94,-0.22,15,-28.00,-15.00,-1047.00
118,1589373400807,-1,1,0,0,0,0,65,66,84,50,94,-0.04,15,-20.00,-4.00,-1030.00
119,1589373400812,-2,1,0,0,0,0,65,66,84,50,94,0.21,15,-5.00,-10.00,-953.00
120,1589373400817,-1,1,0,0,0,0,65,67,84,50,94,-0.18,15,-14.00,10.00,-1029.00
121,1589373400821,-1,0,0,0,0,0,65,67,83,50,94,-0.34,15,-16.00,-11.00,-969.00
122,1589373400826,-1,0,0,0,0,0,65,67,83,50,94,0.15,15,-16.00,-5.00,-1036.00
123,1589373400831,-1,0,0,0,0,0,65,67,83,50,94,-0.08,16,-4.00,-22.00,-953.00
124,1589373400836,-1,0,0,0,0,0,65,67,83,50,94,0.14,16,-33.00,-19.00,-1059.00
125,1589373400841,-1,0,0,0,0,0,65,67,83,50,94,0.18,16,-42.00,-8.00,-997.00
126,1589373400846,-1,0,0,0,0,0,65,67,83,50,94,-0.14,16,-44.00,-14.00,-1023.00
127,1589373400851,-2,0,0,0,0,0,65,67,84,50,94,-0.08,16,-51.00,-9.00,-1039.00
128,1589373400856,-2,0,0,0,0,0,65,67,83,50,94,-0.21,16,-29.00,-15.00,-1047.00
129,1589373400861,-2,0,0,0,0,0,65,67,83,50,94,-0.17,16,-39.00,-20.00,-989.00
130,1589373400866,-2,0,0,0,0,0,65,67,82,50,94,0.16,16,-35.00,-31.00,-953.00
131,1589373400870,-2,0,0,0,0,0,65,67,82,50,94,-0.30,16,-20.00,-3.00,-1001.00
132,1589373400876,-2,0,0,0,0,0,65,67,82,50,94,-0.12,16,-18.00,5.00,-991.00
133,1589373400881,-2,0,0,0,0,0,65,67,81,50,94,-0.29,17,-41.00,-7.00,-1119.00
134,1589373400886,-1,0,0,0,0,0,65,67,80,50,94,-0.18,17,-20.00,-11.00,-952.00
135,1589373400891,-2,0,0,0,0,0,65,67,80,50,94,-0.04,17,-53.00,-23.00,-1035.00
136,1589373400897,-2,0,0,0,0,0,65,67,79,50,94,0.05,17,-34.00,-8.00,-1032.00
137,1589373400901,-1,0,0,0,0,0,65,67,79,50,94,-0.33,17,-24.00,-10.00,-966.00
138,1589373400907,-1,0,0,0,0,0,65,67,78,50,94,-0.20,17,-17.00,-7.00,-1016.00
139,1589373400912,-1,0,0,0,0,0,65,67,78,50,94,-0.06,17,-20.00,-27.00,-959.00
140,1589373400917,-2,0,0,0,0,0,64,67,79,50,94,-0.24,17,-6.00,-12.00,-987.00
141,1589373400923,-2,0,0,0,0,0,64,67,79,50,94,-0.27,17,-8.00,0.00,-1022.00
142,1589373400928,-2,0,0,0,0,0,64,67,78,50,94,-0.28,17,-15.00,-9.00,-1013.00
143,1589373400933,-1,1,0,0,0,0,64,67,78,50,94,0.06,18,-36.00,-2.00,-1023.00
144,1589373400938,-2,1,0,0,0,0,64,67,79,50,94,-0.04,18,-18.00,-1.00,-956.00
145,1589373400943,-2,0,0,0,0,0,64,67,80,50,94,-0.04,18,-34.00,17.00,-1008.00
146,1589373400948,-2,0,0,0,0,0,64,67,79,50,94,-0.40,18,-39.00,0.00,-1027.00
147,1589373400953,-2,0,0,0,0,0,64,67,80,50,94,-0.16,18,-46.00,1.00,-1000.00
148,1589373400958,-2,0,0,0,0,0,64,67,81,50,94,0.00,18,-35.00,-9.00,-943.00
149,1589373400963,-2,0,0,0,0,0,64,67,81,50,94,-0.02,18,-22.00,-3.00,-981.00
150,1589373400967,-2,0,0,0,0,0,66,68,81,50,94,-0.31,18,-19.00,-11.00,-973.00
151,1589373400972,-2,0,0,0,0,0,66,68,82,50,94,-0.09,18,-39.00,-4.00,-992.00
152,1589373400977,-2,0,0,0,0,0,66,68,81,50,94,-0.03,19,-33.00,-17.00,-1001.00
153,1589373400982,-2,0,0,0,0,0,66,68,81,50,94,-0.07,19,-41.00,-12.00,-1013.00
154,1589373400987,-2,0,0,0,0,0,66,68,82,50,94,-0.13,19,-25.00,-2.00,-975.00
155,1589373400992,-2,0,0,0,0,0,66,68,82,50,94,0.01,19,-13.00,1.00,-1050.00
156,1589373400997,-2,0,0,0,0,0,66,68,83,50,94,-0.21,19,-47.00,-13.00,-1005.00
157,1589373401002,-2,0,0,0,0,0,66,68,83,50,94,-0.12,19,-7.00,-16.00,-965.00
158,1589373401006,-2,0,0,0,0,0,66,68,83,50,94,-0.09,19,-21.00,-8.00,-981.00
159,1589373401011,-2,0,0,0,0,0,66,68,83,50,94,-0.06,19,-25.00,1.00,-1031.00
160,1589373401017,-1,0,0,0,0,0,66,68,83,50,94,-0.18,19,-33.00,-4.00,-1009.00
161,1589373401022,-1,0,0,0,0,0,66,68,83,50,94,-0.18,19,-32.00,4.00,-1045.00
162,1589373401027,-2,0,0,0,0,0,66,68,83,50,94,-0.33,20,-3.00,-2.00,-993.00
163,1589373401031,-2,0,0,0,0,0,66,68,83,50,94,-0.16,20,-31.00,-12.00,-996.00
164,1589373401036,-2,0,0,0,0,0,66,68,83,50,94,-0.24,20,-25.00,-8.00,-1000.00
165,1589373401041,-2,0,0,0,0,0,66,68,83,50,94,-0.10,20,-9.00,-8.00,-1024.00
166,1589373401046,-2,1,0,0,0,0,66,68,83,50,94,0.18,20,-25.00,-12.00,-959.00
167,1589373401051,-1,0,0,0,0,0,66,68,83,50,94,-0.27,20,-23.00,-10.00,-964.00
168,1589373401056,-1,0,0,0,0,0,66,68,82,50,94,-0.30,20,-41.00,0.00,-1002.00
169,1589373401061,-1,0,0,0,0,0,66,68,82,50,94,-0.06,20,-14.00,-7.00,-994.00
170,1589373401066,-1,0,0,0,0,0,66,68,82,50,94,-0.32,20,-7.00,-18.00,-979.00
171,1589373401070,-1,0,0,0,0,0,66,68,82,50,94,-0.08,20,-15.00,-6.00,-1010.00
172,1589373401075,-1,0,0,0,0,0,66,68,82,50,94,-0.07,21,-26.00,-10.00,-1031.00
173,1589373401080,-1,0,0,0,0,0,66,68,82,50,94,-0.38,21,15.00,0.00,-974.00
174,1589373401085,0,0,0,0,0,0,66,68,82,50,94,-0.13,21,-33.00,-28.00,-988.00
175,1589373401090,-1,0,0,0,0,0,66,68,82,50,94,-0.11,21,4.00,-8.00,-978.00
176,1589373401095,-1,1,0,0,0,0,66,68,81,50,94,-0.44,21,-27.00,-31.00,-981.00
177,1589373401100,-1,0,0,0,0,0,66,68,81,50,94,0.04,21,-15.00,-17.00,-1013.00
178,1589373401105,-1,1,0,0,0,0,66,68,81,50,94,-0.23,21,-18.00,-20.00,-1024.00
179,1589373401110,-1,1,0,0,0,0,66,68,81,50,94,-0.42,21,-51.00,-32.00,-1070.00
180,1589373401115,-1,1,0,0,0,0,66,68,81,50,94,-0.53,21,-44.00,-37.00,-962.00
181,1589373401119,-1,1,0,0,0,0,66,68,82,50,94,-0.30,21,-35.00,2.00,-1051.00
182,1589373401124,-1,0,0,0,0,0,66,68,82,50,94,-0.42,22,-25.00,-33.00,-984.00
183,1589373401129,-1,1,0,0,0,0,66,68,81,50,94,0.01,22,-26.00,-20.00,-1002.00
184,1589373401134,-2,1,0,0,0,0,66,68,81,50,94,-0.43,22,-40.00,-6.00,-1015.00
185,1589373401139,-2,0,0,0,0,0,66,68,82,50,94,-0.20,22,-18.00,-9.00,-978.00
186,1589373401144,-2,0,0,0,0,0,66,68,82,50,94,-0.14,22,-47.00,-9.00,-991.00
187,1589373401149,-2,0,0,0,0,0,66,68,83,50,94,-0.44,22,-27.00,-10.00,-1015.00
188,1589373401154,-2,0,0,0,0,0,66,68,83,50,94,-0.04,22,-49.00,-6.00,-986.00
189,1589373401159,-2,0,0,0,0,0,66,68,82,50,94,-0.07,22,-53.00,-18.00,-1010.00
190,1589373401164,-3,0,0,0,0,0,66,69,82,50,94,-0.16,22,-38.00,-11.00,-985.00
191,1589373401169,-3,0,0,0,0,0,66,69,82,50,94,-0.38,22,-53.00,-5.00,-996.00
192,1589373401174,-3,0,0,0,0,0,66,69,82,50,94,0.18,23,-39.00,-37.00,-984.00
193,1589373401179,-3,1,0,0,0,0,66,69,81,50,94,0.03,23,-35.00,-22.00,-1001.00
194,1589373401184,-3,1,0,0,0,0,66,69,81,50,94,-0.40,23,-43.00,-39.00,-1041.00
195,1589373401189,-3,1,0,0,0,0,66,69,81,50,94,-0.15,23,-59.00,-25.00,-1011.00
196,1589373401194,-3,1,0,0,0,0,66,69,81,50,94,-0.37,23,-38.00,-20.00,-972.00
197,1589373401199,-3,1,0,0,0,0,66,69,82,50,94,-0.15,23,-59.00,-16.00,-973.00
198,1589373401204,-2,0,0,0,0,0,66,69,82,50,94,-0.18,23,-50.00,-18.00,-1006.00
199,1589373401209,-3,0,0,0,0,0,66,69,82,50,94,-0.00,23,-46.00,-7.00,-1007.00
200,1589373401214,-2,0,0,0,0,0,66,68,82,50,94,-0.05,23,-30.00,-17.00,-980.00
201,1589373401219,-2,0,0,0,0,0,66,68,82,50,94,-0.03,23,-56.00,-15.00,-1046.00
202,1589373401224,-2,0,0,0,0,0,66,68,83,50,94,-0.36,24,-36.00,-8.00,-981.00
203,1589373401228,-2,0,0,0,0,0,66,68,83,50,94,-0.16,24,-39.00,1.00,-1024.00
204,1589373401233,-2,0,0,0,0,0,66,68,83,50,94,-0.05,24,-43.00,-4.00,-964.00
205,1589373401238,-2,0,0,0,0,0,66,68,83,50,94,-0.21,24,-29.00,4.00,-1027.00
206,1589373401243,-2,0,0,0,0,0,66,68,84,50,94,-0.01,24,-38.00,-6.00,-953.00
207,1589373401248,-2,0,0,0,0,0,66,68,84,50,94,-0.10,24,-55.00,-10.00,-1013.00
208,1589373401253,-2,0,0,0,0,0,66,68,84,50,94,-0.06,24,-41.00,-9.00,-985.00
209,1589373401258,-2,0,0,0,0,0,66,68,84,50,94,-0.30,24,-14.00,-2.00,-992.00
210,1589373401263,-2,0,0,0,0,0,66,69,85,50,94,-0.17,24,-44.00,-8.00,-1011.00
211,1589373401268,-2,0,0,0,0,0,66,69,85,50,94,0.02,24,-34.00,-4.00,-1018.00
212,1589373401273,-2,0,0,0,0,0,66,69,85,50,94,-0.14,25,-44.00,-5.00,-1037.00
213,1589373401278,-1,0,0,0,0,0,66,69,85,50,94,0.05,25,-19.00,-21.00,-953.00
214,1589373401283,-2,0,0,0,0,0,66,69,85,50,94,-0.29,25,-55.00,-22.00,-1009.00
215,1589373401288,-2,0,0,0,0,0,66,69,85,50,94,0.17,25,-26.00,-18.00,-963.00
216,1589373401293,-1,0,0,0,0,0,66,69,84,50,94,-0.11,25,-13.00,1.00,-1018.00
217,1589373401298,-1,0,0,0,0,0,66,69,83,50,94,-0.32,25,0.00,-38.00,-974.00
218,1589373401303,-1,0,0,0,0,0,66,69,83,50,94,-0.19,25,-36.00,-19.00,-1041.00
219,1589373401308,-1,1,0,0,0,0,66,69,82,50,94,-0.37,25,-34.00,-23.00,-1038.00
220,1589373401312,-1,1,0,0,0,0,67,69,82,50,94,-0.15,25,-31.00,-25.00,-1057.00
221,1589373401317,-1,1,0,0,0,0,67,69,82,50,94,-0.32,25,-3.00,-25.00,-960.00
222,1589373401322,-1,2,0,0,0,0,67,69,82,50,94,-0.07,26,-10.00,-25.00,-1001.00
223,1589373401327,-1,2,0,0,0,0,67,69,81,50,94,0.01,26,1.00,-16.00,-1005.00
224,1589373401332,-1,2,0,0,0,0,67,69,81,50,94,0.20,26,-5.00,-17.00,-988.00
225,1589373401337,0,2,0,0,0,0,67,69,81,50,94,0.27,26,3.00,-16.00,-1008.00
226,1589373401342,0,1,0,0,0,0,67,69,81,50,94,0.36,26,-24.00,-24.00,-1069.00
227,1589373401347,0,0,0,0,0,0,67,69,80,50,94,-0.16,26,-23.00,-29.00,-989.00
228,1589373401352,0,0,0,0,0,0,67,69,80,50,94,-0.33,26,-6.00,-16.00,-1002.00
229,1589373401357,0,1,0,0,0,0,67,69,80,50,94,-0.13,26,-7.00,-23.00,-1017.00
230,1589373401362,0,0,0,0,0,0,68,69,80,50,94,-0.41,26,3.00,-14.00,-1029.00
231,1589373401367,0,0,0,0,0,0,68,69,79,50,94,0.08,26,-11.00,-30.00,-959.00
232,1589373401372,0,1,0,0,0,0,68,69,80,50,94,-0.27,27,-25.00,-23.00,-1036.00
233,1589373401377,0,0,0,0,0,0,68,69,79,50,94,-0.03,27,-9.00,-22.00,-1046.00
234,1589373401382,0,0,0,0,0,0,68,69,80,50,94,-0.16,27,-28.00,-2.00,-1016.00
235,1589373401387,0,0,0,0,0,0,68,69,80,50,94,-0.20,27,-29.00,1.00,-1022.00
236,1589373401392,0,0,0,0,0,0,68,69,80,50,94,-0.14,27,-7.00,-8.00,-982.00
237,1589373401397,0,0,0,0,0,0,68,69,80,50,94,-0.07,27,-52.00,1.00,-997.00
238,1589373401402,-1,0,0,0,0,0,68,69,80,50,94,0.05,27,-24.00,12.00,-1028.00
239,1589373401407,-1,0,0,0,0,0,68,69,81,50,94,-0.09,27,-30.00,4.00,-1002.00
240,1589373401412,-1,0,0,0,0,0,67,70,81,50,94,0.03,27,-17.00,-7.00,-946.00
241,1589373401417,-1,0,0,0,0,0,67,70,81,50,94,0.09,27,-28.00,12.00,-1006.00
242,1589373401422,-1,0,0,0,0,0,67,70,81,50,94,-0.07,28,-41.00,-2.00,-1022.00
243,1589373401427,-1,0,0,0,0,0,67,70,82,50,94,0.02,28,-8.00,20.00,-992.00
244,1589373401432,-1,0,0,0,0,0,67,70,82,50,94,0.23,28,-26.00,4.00,-981.00
245,1589373401437,-1,-1,0,0,0,0,67,70,83,50,94,-0.31,28,4.00,18.00,-998.00
246,1589373401442,-1,-1,0,0,0,0,67,70,83,50,94,0.16,28,-19.00,12.00,-977.00
247,1589373401447,-1,-1,0,0,0,0,67,70,83,50,94,0.20,28,-18.00,9.00,-975.00
248,1589373401452,-1,-1,0,0,0,0,67,70,83,50,94,-0.23,28,4.00,27.00,-1035.00
249,1589373401456,-1,-1,0,0,0,0,67,70,83,50,94,-0.06,28,-13.00,4.00,-1027.00
250,1589373401461,-1,-1,0,0,0,0,67,69,84,50,94,0.11,28,-21.00,-9.00,-977.00
251,1589373401466,-1,-1,0,0,0,0,67,69,83,50,94,0.10,28,-16.00,-3.00,-1003.00
252,1589373401471,-1,0,0,0,0,0,67,69,83,50,94,-0.15,29,-13.00,-2.00,-997.00
253,1589373401476,-1,0,0,0,0,0,67,69,83,50,94,-0.02,29,-32.00,-15.00,-1009.00
254,1589373401481,-1,0,0,0,0,0,67,69,83,50,94,-0.02,29,-34.00,-9.00,-1018.00
255,1589373401486,-1,0,0,0,0,0,67,69,83,50,94,-0.21,29,-16.00,4.00,-1007.00
256,1589373401491,-1,0,0,0,0,0,67,69,84,50,94,-0.18,29,-23.00,6.00,-1019.00
257,1589373401496,-2,0,0,0,0,0,67,69,84,50,94,0.01,29,-13.00,-4.00,-1006.00
258,1589373401501,-2,0,0,0,0,0,67,69,84,50,94,-0.06,29,-4.00,2.00,-972.00
259,1589373401506,-2,0,0,0,0,0,67,69,83,50,94,-0.09,29,-24.00,-1.00,-978.00
260,1589373401511,-1,0,0,0,0,0,67,69,83,50,94,0.09,29,5.00,-13.00,-924.00
261,1589373401516,-1,0,0,0,0,0,67,69,83,50,94,0.18,29,-31.00,-10.00,-990.00
262,1589373401521,-1,0,0,0,0,0,67,69,84,50,94,-0.12,30,-40.00,-19.00,-976.00
263,1589373401526,-1,0,0,0,0,0,67,69,84,50,94,-0.30,30,-21.00,3.00,-1034.00
264,1589373401531,-1,0,0,0,0,0,67,69,85,50,94,-0.21,30,-60.00,-3.00,-1052.00
265,1589373401536,-1,0,0,0,0,0,67,69,85,50,94,-0.14,30,-18.00,-2.00,-983.00
266,1589373401541,-2,0,0,0,0,0,67,69,86,50,94,-0.01,30,-42.00,-8.00,-996.00
267,1589373401546,-2,0,0,0,0,0,67,69,87,50,94,-0.08,30,-40.00,-12.00,-926.00
268,1589373401552,-2,0,0,0,0,0,67,69,87,50,94,-0.02,30,-34.00,-9.00,-986.00
269,1589373401557,-2,0,0,0,0,0,67,69,87,60,94,-0.14,30,-25.00,-12.00,-931.00
270,1589373401562,-2,0,0,0,0,0,69,70,87,60,94,0.25,30,-23.00,-12.00,-967.00
271,1589373401567,-2,0,0,0,0,0,69,70,87,60,94,-0.23,30,-41.00,-7.00,-1013.00
272,1589373401572,-1,0,0,0,0,0,69,70,87,60,94,-0.04,31,-15.00,-1.00,-1021.00
273,1589373401577,-1,0,0,0,0,0,69,70,86,60,94,-0.43,31,-38.00,-23.00,-999.00
274,1589373401581,-1,0,0,0,0,0,69,70,85,60,94,-0.23,31,-49.00,-17.00,-1055.00
275,1589373401586,-1,0,0,0,0,0,69,70,85,50,94,-0.12,31,-13.00,-6.00,-1009.00
276,1589373401591,-1,0,0,0,0,0,69,70,84,50,94,-0.11,31,0.00,-7.00,-951.00
277,1589373401596,-1,0,0,0,0,0,69,70,84,50,94,0.22,31,-35.00,-17.00,-1011.00
278,1589373401601,0,0,0,0,0,0,69,70,84,50,94,0.08,31,-12.00,-23.00,-974.00
279,1589373401606,-1,0,0,0,0,0,69,70,83,50,94,0.26,31,-5.00,-23.00,-918.00
280,1589373401611,0,0,0,0,0,0,68,70,83,50,94,0.20,31,-39.00,-8.00,-1072.00
281,1589373401616,0,1,0,0,0,0,68,70,83,50,94,-0.10,31,-37.00,-22.00,-1064.00
282,1589373401621,0,0,0,0,0,0,68,70,83,50,94,0.05,32,0.00,-13.00,-968.00
283,1589373401626,0,0,0,0,0,0,68,70,83,50,94,-0.19,32,-19.00,2.00,-1010.00
284,1589373401631,0,0,0,0,0,0,68,70,83,50,94,-0.00,32,-34.00,-10.00,-1068.00
285,1589373401636,0,0,0,0,0,0,68,70,83,50,94,0.14,32,-7.00,3.00,-1054.00
286,1589373401641,0,0,0,0,0,0,68,70,83,50,94,-0.04,32,5.00,-13.00,-945.00
287,1589373401646,0,0,0,0,0,0,68,70,83,50,94,0.14,32,-24.00,-1.00,-1046.00
288,1589373401651,0,0,0,0,0,0,68,70,82,50,94,0.04,32,-5.00,-21.00,-981.00
289,1589373401656,0,0,0,0,0,0,68,70,82,50,94,-0.12,32,-1.00,-15.00,-990.00
290,1589373401661,0,0,0,0,0,0,67,70,82,50,94,-0.28,32,-4.00,-12.00,-991.00
291,1589373401666,0,0,0,0,0,0,67,70,82,50,94,-0.04,32,-4.00,6.00,-1100.00
292,1589373401671,0,0,0,0,0,0,67,70,82,50,94,-0.14,33,1.00,11.00,-1110.00
293,1589373401676,0,0,0,0,0,0,67,70,82,50,94,-0.03,33,-19.00,1.00,-1027.00
294,1589373401681,0,0,0,0,0,0,67,70,82,50,94,-0.21,33,4.00,-2.00,-1021.00
295,1589373401687,0,0,0,0,0,0,67,70,82,50,94,-0.18,33,18.00,-3.00,-962.00
296,1589373401692,0,0,0,0,0,0,67,70,82,50,94,0.03,33,26.00,9.00,-1011.00
297,1589373401697,0,0,0,0,0,0,67,70,82,50,94,-0.15,33,16.00,11.00,-1049.00
298,1589373401702,0,0,0,0,0,0,67,70,82,50,94,-0.23,33,4.00,-14.00,-977.00
299,1589373401707,0,0,0,0,0,0,67,70,81,50,94,-0.19,33,-5.00,0.00,-1037.00
300,1589373401712,0,0,0,0,0,0,67,71,81,50,94,0.15,33,2.00,-4.00,-965.00
301,1589373401717,0,0,0,0,0,0,67,71,81,50,94,0.13,33,41.00,5.00,-1016.00
302,1589373401722,0,0,0,0,0,0,67,71,81,50,94,-0.15,34,14.00,8.00,-1043.00
303,1589373401727,1,0,0,0,0,0,67,71,81,50,94,0.15,34,28.00,2.00,-1008.00
304,1589373401732,0,0,0,0,0,0,67,71,80,50,94,-0.21,34,11.00,1.00,-1036.00
305,1589373401737,0,0,0,0,0,0,67,71,80,50,94,-0.16,34,-8.00,-1.00,-1026.00
306,1589373401742,0,0,0,0,0,0,67,71,80,50,94,-0.13,34,-9.00,-9.00,-975.00
307,1589373401747,0,0,0,0,0,0,67,71,80,50,94,0.33,34,11.00,-5.00,-998.00
308,1589373401752,0,0,0,0,0,0,67,71,79,50,94,0.19,34,12.00,1.00,-995.00
309,1589373401757,0,0,0,0,0,0,67,71,79,50,94,-0.18,34,-22.00,2.00,-1012.00
310,1589373401762,0,0,0,0,0,0,67,71,80,50,94,-0.35,34,-2.00,-1.00,-1037.00
311,1589373401767,0,0,0,0,0,0,67,71,79,50,94,-0.16,34,-26.00,-5.00,-996.00
312,1589373401772,0,0,0,0,0,0,67,71,79,50,94,-0.24,35,10.00,-7.00,-998.00
313,1589373401777,0,0,0,0,0,0,67,71,79,50,94,0.15,35,22.00,2.00,-1022.00
314,1589373401782,0,0,0,0,0,0,67,71,79,50,94,-0.04,35,15.00,6.00,-1033.00
315,1589373401787,0,0,0,0,0,0,67,71,79,50,94,-0.40,35,-14.00,-17.00,-997.00
316,1589373401792,0,0,0,0,0,0,67,71,79,50,94,-0.08,35,10.00,-12.00,-949.00
317,1589373401797,0,0,0,0,0,0,67,71,79,50,94,0.14,35,8.00,-8.00,-1006.00
318,1589373401802,0,0,0,0,0,0,67,71,80,50,94,-0.29,35,2.00,-22.00,-984.00
319,1589373401807,0,0,0,0,0,0,67,71,80,50,94,0.03,35,-12.00,-13.00,-1028.00
320,1589373401812,0,0,0,0,0,0,69,70,81,50,94,-0.13,35,0.00,-2.00,-1002.00
321,1589373401817,0,0,0,0,0,0,69,70,83,50,94,-0.12,36,-24.00,-4.00,-961.00
322,1589373401822,0,0,0,0,0,0,69,70,84,50,94,-0.09,36,-24.00,-9.00,-991.00
323,1589373401826,-1,0,0,0,0,0,69,70,85,50,94,0.03,36,3.00,-24.00,-968.00
324,1589373401831,0,0,0,0,0,0,69,70,85,50,94,-0.09,36,22.00,-13.00,-958.00
325,1589373401836,0,1,0,0,0,0,69,70,86,60,94,-0.03,36,22.00,-5.00,-992.00
326,1589373401842,0,1,0,0,0,0,69,70,86,60,94,-0.18,36,21.00,-14.00,-973.00
327,1589373401847,0,0,0,0,0,0,69,70,87,60,94,0.00,36,33.00,-21.00,-988.00
328,1589373401851,0,1,0,0,0,0,69,70,88,60,94,0.27,36,49.00,-1.00,-996.00
329,1589373401856,1,0,0,0,0,0,69,70,89,60,94,-0.01,36,14.00,-21.00,-936.00
330,1589373401861,2,0,0,0,0,0,69,70,89,60,94,0.19,36,22.00,-5.00,-1016.00
331,1589373401866,2,0,0,0,0,0,69,70,89,60,94,0.10,37,30.00,-24.00,-1001.00
332,1589373401871,2,0,0,0,0,0,69,70,88,60,94,0.46,37,1.00,-25.00,-941.00
333,1589373401876,2,1,0,0,0,0,69,70,88,60,94,-0.03,37,25.00,-8.00,-986.00
334,1589373401881,1,1,0,0,0,0,69,70,87,60,94,0.08,37,13.00,6.00,-992.00
335,1589373401886,1,1,0,0,0,0,69,70,87,60,94,-0.29,37,43.00,6.00,-991.00
336,1589373401891,1,0,0,0,0,0,69,70,87,60,94,0.00,37,37.00,2.00,-1001.00
337,1589373401896,1,0,0,0,0,0,69,70,86,60,94,0.02,37,-9.00,-9.00,-1099.00
338,1589373401901,1,0,0,0,0,0,69,70,86,50,94,0.14,37,33.00,2.00,-978.00
339,1589373401906,1,0,0,0,0,0,69,70,85,50,94,0.08,37,10.00,0.00,-1046.00
340,1589373401911,1,0,0,0,0,0,68,71,84,50,94,-0.09,37,66.00,17.00,-952.00
341,1589373401916,2,0,0,0,0,0,68,71,84,50,94,0.01,38,-13.00,-5.00,-1064.00
342,1589373401921,2,0,0,0,0,0,68,71,84,50,94,0.31,38,75.00,19.00,-922.00
343,1589373401926,2,0,0,0,0,0,68,71,85,50,94,-0.08,38,16.00,17.00,-1035.00
344,1589373401931,2,0,0,0,0,0,68,71,85,50,94,0.06,38,4.00,4.00,-1066.00
345,1589373401936,2,0,0,0,0,0,68,71,85,50,94,-0.11,38,65.00,31.00,-895.00
346,1589373401941,2,0,0,0,0,0,68,71,85,50,94,-0.30,38,2.00,2.00,-1100.00
347,1589373401946,2,-1,0,0,0,0,68,71,85,50,94,-0.23,38,42.00,25.00,-1033.00
348,1589373401951,2,-1,0,0,0,0,68,71,86,50,94,-0.10,38,47.00,16.00,-944.00
349,1589373401956,1,-1,0,0,0,0,68,71,86,50,94,0.19,38,35.00,20.00,-1042.00
350,1589373401961,1,-1,0,0,0,0,69,71,86,50,94,0.25,38,48.00,-1.00,-971.00
351,1589373401966,2,-1,0,0,0,0,69,71,85,50,94,0.20,39,20.00,3.00,-1025.00
352,1589373401971,2,0,0,0,0,0,69,71,84,50,94,-0.05,39,-5.00,19.00,-1065.00
353,1589373401976,1,0,0,0,0,0,69,71,84,50,94,0.47,39,21.00,53.00,-976.00
354,1589373401981,1,0,0,0,0,0,69,71,83,50,94,0.13,39,22.00,89.00,-1013.00
355,1589373401986,0,-2,0,0,0,0,69,71,84,50,94,0.00,39,30.00,54.00,-1033.00
356,1589373401991,0,-3,0,0,0,0,69,71,84,50,94,0.13,39,47.00,33.00,-976.00
357,1589373401996,0,-3,0,0,0,0,69,71,84,50,94,-0.25,39,49.00,42.00,-1048.00
358,1589373402001,1,-3,0,0,0,0,69,71,83,50,94,0.18,39,26.00,23.00,-1019.00
359,1589373402006,1,-2,0,0,0,0,69,71,84,50,94,0.29,39,30.00,8.00,-971.00
360,1589373402012,2,-1,0,0,0,0,69,71,84,50,94,-0.05,39,70.00,36.00,-959.00
361,1589373402017,2,-1,0,0,0,0,69,71,83,50,94,0.25,40,32.00,38.00,-955.00
362,1589373402022,2,-1,0,0,0,0,69,71,83,50,94,0.12,40,48.00,29.00,-911.00
363,1589373402027,1,-1,0,0,0,0,69,71,82,50,94,0.07,40,27.00,17.00,-967.00
364,1589373402032,2,-1,0,0,0,0,69,71,82,50,94,0.23,40,28.00,45.00,-1006.00
365,1589373402037,2,-2,0,0,0,0,69,71,81,50,94,0.02,40,53.00,44.00,-956.00
366,1589373402042,2,-2,0,0,0,0,69,71,81,50,94,-0.23,40,16.00,45.00,-1098.00
367,1589373402047,1,-2,0,0,0,0,69,71,81,50,94,0.19,40,26.00,25.00,-995.00
368,1589373402052,1,-2,0,0,0,0,69,71,82,50,94,0.05,40,60.00,18.00,-1010.00
369,1589373402057,2,-1,0,0,0,0,69,71,82,50,94,0.19,40,29.00,19.00,-968.00
370,1589373402062,1,-1,0,0,0,0,69,71,81,50,94,0.07,40,26.00,10.00,-1002.00
371,1589373402067,2,0,0,0,0,0,69,71,81,50,94,0.08,41,13.00,17.00,-1003.00
372,1589373402072,1,-1,0,0,0,0,69,71,82,50,94,-0.00,41,33.00,10.00,-952.00
373,1589373402077,1,-1,0,0,0,0,69,71,82,50,94,0.13,41,12.00,7.00,-1001.00
374,1589373402082,1,0,0,0,0,0,69,71,81,50,94,0.32,41,42.00,1.00,-972.00
375,1589373402087,1,0,0,0,0,0,69,71,81,50,94,-0.15,41,20.00,18.00,-1034.00
376,1589373402092,1,0,0,0,0,0,69,71,81,50,94,0.09,41,25.00,10.00,-1038.00
377,1589373402097,1,0,0,0,0,0,69,71,80,50,94,-0.26,41,42.00,35.00,-945.00
378,1589373402102,0,0,0,0,0,0,69,71,79,50,94,0.05,41,30.00,20.00,-1002.00
379,1589373402107,0,0,0,0,0,0,69,71,78,50,94,-0.03,41,-4.00,16.00,-1133.00
380,1589373402112,0,0,0,0,0,0,69,72,77,50,94,0.01,41,33.00,26.00,-1089.00
381,1589373402117,0,-1,0,0,0,0,69,72,77,50,94,0.23,42,24.00,6.00,-925.00
382,1589373402123,0,-1,0,0,0,0,69,72,76,50,94,0.13,42,25.00,31.00,-1000.00
383,1589373402128,0,-1,0,0,0,0,69,72,76,50,94,0.07,42,-21.00,24.00,-1169.00
384,1589373402133,0,-1,0,0,0,0,69,72,76,50,94,-0.15,42,25.00,13.00,-936.00
385,1589373402138,0,-1,0,0,0,0,69,72,75,50,94,0.12,42,8.00,26.00,-1023.00
386,1589373402143,0,-1,0,0,0,0,69,72,74,50,94,-0.21,42,11.00,1.00,-944.00
387,1589373402148,0,0,0,0,0,0,69,72,74,50,94,-0.28,42,15.00,19.00,-1014.00
388,1589373402154,0,0,0,0,0,0,69,72,74,50,94,0.24,42,18.00,6.00,-981.00
389,1589373402159,0,0,0,0,0,0,69,72,75,50,94,-0.03,42,6.00,12.00,-1040.00
390,1589373402164,0,0,0,0,0,0,70,72,75,50,94,-0.25,42,12.00,0.00,-966.00
391,1589373402169,0,0,0,0,0,0,70,72,75,50,94,-0.04,43,1.00,2.00,-1098.00
392,1589373402174,0,0,0,0,0,0,70,72,76,50,94,-0.19,43,-2.00,6.00,-1048.00
393,1589373402179,0,0,0,0,0,0,70,72,77,50,94,-0.15,43,-12.00,-2.00,-1001.00
394,1589373402184,0,0,0,0,0,0,70,72,77,50,94,-0.27,43,21.00,1.00,-944.00
395,1589373402189,0,0,0,0,0,0,70,72,77,50,94,0.12,43,-15.00,-4.00,-983.00
396,1589373402194,0,0,0,0,0,0,70,72,78,50,94,0.06,43,3.00,-9.00,-991.00
397,1589373402199,0,0,0,0,0,0,70,72,79,50,94,0.06,43,20.00,10.00,-963.00
398,1589373402204,0,0,0,0,0,0,70,72,79,50,94,-0.02,43,21.00,-2.00,-995.00
399,1589373402209,0,0,0,0,0,0,70,72,80,50,94,0.03,43,15.00,5.00,-971.00
400,1589373402214,0,0,0,0,0,0,69,72,81,50,94,-0.12,43,28.00,7.00,-948.00
401,1589373402219,0,0,0,0,0,0,69,72,82,50,94,0.10,44,22.00,1.00,-1025.00
402,1589373402224,0,0,0,0,0,0,69,72,83,50,94,-0.05,44,10.00,-6.00,-1004.00
403,1589373402229,0,0,0,0,0,0,69,72,83,50,94,-0.00,44,6.00,-21.00,-989.00
404,1589373402234,0,0,0,0,0,0,69,72,85,50,94,-0.00,44,0.00,12.00,-1041.00
405,1589373402239,0,0,0,0,0,0,69,72,85,50,94,0.12,44,0.00,-7.00,-1039.00
406,1589373402244,0,0,0,0,0,0,69,72,85,50,94,0.25,44,33.00,13.00,-983.00
407,1589373402249,0,0,0,0,0,0,69,72,85,50,94,0.05,44,-24.00,6.00,-1124.00
408,1589373402254,0,0,0,0,0,0,69,72,85,50,94,0.15,44,-47.00,-17.00,-1094.00
409,1589373402259,0,0,0,0,0,0,69,72,85,50,94,-0.20,44,53.00,9.00,-813.00
410,1589373402264,0,0,0,0,0,0,69,72,85,50,94,0.25,44,-36.00,-14.00,-1110.00
411,1589373402269,0,0,0,0,0,0,69,72,85,50,94,-0.03,45,13.00,9.00,-944.00
412,1589373402274,0,0,0,0,0,0,69,72,84,50,94,-0.15,45,10.00,6.00,-896.00
413,1589373402279,0,0,0,0,0,0,69,72,83,50,94,0.18,45,-3.00,-9.00,-1031.00
414,1589373402284,0,0,0,0,0,0,69,72,82,50,94,0.25,45,-12.00,0.00,-1068.00
415,1589373402289,0,0,0,0,0,0,69,72,81,50,94,0.02,45,15.00,5.00,-884.00
416,1589373402294,0,0,0,0,0,0,69,72,80,50,94,0.32,45,24.00,-4.00,-937.00
417,1589373402299,0,0,0,0,0,0,69,72,79,50,94,-0.14,45,34.00,14.00,-929.00
418,1589373402305,0,-1,0,0,0,0,69,72,78,50,94,-0.17,45,61.00,25.00,-963.00
419,1589373402310,0,-1,0,0,0,0,69,72,77,50,94,0.02,45,-22.00,6.00,-1084.00
420,1589373402315,1,-1,0,0,0,0,71,72,76,50,94,-0.16,45,18.00,33.00,-1073.00
421,1589373402320,1,-1,0,0,0,0,71,72,76,50,94,-0.33,46,16.00,23.00,-1105.00
422,1589373402325,2,-1,0,0,0,0,71,72,77,50,94,-0.28,46,16.00,12.00,-1075.00
423,1589373402330,1,-1,0,0,0,0,71,72,77,50,94,0.07,46,27.00,0.00,-937.00
424,1589373402335,1,-1,0,0,0,0,71,72,77,50,94,0.02,46,55.00,5.00,-979.00
425,1589373402340,0,-1,0,0,0,0,71,72,77,50,94,-0.15,46,70.00,13.00,-979.00
426,1589373402345,0,0,0,0,0,0,71,72,77,50,94,-0.23,46,23.00,-19.00,-947.00
427,1589373402350,0,0,0,0,0,0,71,72,77,50,94,0.17,46,-10.00,-23.00,-1014.00
428,1589373402355,0,0,0,0,0,0,71,72,76,50,94,-0.22,46,-4.00,-18.00,-921.00
429,1589373402360,0,0,0,0,0,0,71,72,76,50,94,-0.05,46,-40.00,-11.00,-1014.00
430,1589373402365,0,0,0,0,0,0,71,73,75,50,94,0.12,46,13.00,1.00,-954.00
431,1589373402370,0,0,0,0,0,0,71,73,74,50,94,-0.20,47,64.00,73.00,-962.00
432,1589373402375,0,0,0,0,0,0,71,73,72,50,94,-0.24,47,47.00,49.00,-992.00
433,1589373402380,0,-1,0,0,0,0,71,73,74,50,94,-0.11,47,6.00,31.00,-1033.00
434,1589373402385,0,-2,0,0,0,0,71,73,73,50,94,-0.19,47,-13.00,21.00,-1018.00
435,1589373402390,0,-2,0,0,0,0,71,73,73,50,94,0.07,47,-36.00,40.00,-1143.00
436,1589373402395,0,-2,0,0,0,0,71,73,73,50,94,-0.12,47,8.00,38.00,-1005.00
437,1589373402400,0,-2,0,0,0,0,71,73,74,50,94,0.07,47,32.00,52.00,-981.00
438,1589373402406,0,-3,0,0,0,0,71,73,76,50,94,-0.06,47,21.00,41.00,-1019.00
439,1589373402411,0,-3,0,0,0,0,71,73,77,50,94,0.01,47,9.00,48.00,-993.00
440,1589373402416,0,-3,0,0,0,0,71,73,78,50,94,-0.01,47,22.00,45.00,-999.00
441,1589373402421,0,-3,0,0,0,0,71,73,79,50,94,-0.15,48,17.00,24.00,-968.00
442,1589373402426,0,-3,0,0,0,0,71,73,80,50,94,0.05,48,22.00,20.00,-982.00
443,1589373402431,0,-2,0,0,0,0,71,73,81,50,94,0.17,48,4.00,12.00,-933.00
444,1589373402436,0,-1,0,0,0,0,71,73,82,50,94,0.14,48,8.00,33.00,-1038.00
445,1589373402441,0,-1,0,0,0,0,71,73,83,50,94,0.19,48,-1.00,20.00,-996.00
446,1589373402446,0,-1,0,0,0,0,71,73,84,50,94,0.22,48,-7.00,20.00,-1002.00
447,1589373402451,0,-2,0,0,0,0,71,73,85,50,94,0.16,48,7.00,22.00,-999.00
448,1589373402456,0,-2,0,0,0,0,71,73,86,50,94,0.22,48,10.00,10.00,-982.00
449,1589373402461,0,-2,0,0,0,0,71,73,86,50,94,-0.17,48,4.00,10.00,-966.00
450,1589373402466,0,-1,0,0,0,0,70,73,87,60,94,0.08,48,-25.00,22.00,-1017.00
451,1589373402471,0,0,0,0,0,0,70,73,86,60,94,0.01,49,13.00,30.00,-972.00
452,1589373402476,0,0,0,0,0,0,70,73,86,60,94,0.33,49,-6.00,31.00,-1009.00
453,1589373402481,0,-1,0,0,0,0,70,73,88,60,94,0.06,49,18.00,28.00,-966.00
454,1589373402486,0,-2,0,0,0,0,70,73,88,60,94,0.11,49,54.00,29.00,-962.00
455,1589373402491,0,-2,0,0,0,0,70,73,89,60,94,0.09,49,52.00,9.00,-1005.00
456,1589373402496,1,-2,0,0,0,0,70,73,89,60,94,0.19,49,51.00,-16.00,-955.00
457,1589373402501,2,0,0,1,0,0,70,73,87,60,94,0.36,49,-17.00,24.00,-1005.00
458,1589373402506,2,0,-1,0,0,1,70,73,86,60,94,0.46,49,-35.00,80.00,-991.00
459,1589373402512,1,0,-3,0,0,1,70,73,86,60,94,0.00,49,49.00,61.00,-830.00
460,1589373402517,1,-3,-2,0,1,1,70,73,85,50,93,0.00,49,-27.00,66.00,-1027.00
461,1589373402522,2,-6,0,0,1,0,70,73,85,50,93,0.31,50,55.00,71.00,-989.00
462,1589373402527,2,-6,0,0,0,0,70,73,86,50,93,0.05,50,-4.00,92.00,-1225.00
463,1589373402532,2,-4,0,0,0,0,70,73,88,50,93,0.18,50,49.00,44.00,-1114.00
464,1589373402537,2,-4,0,0,0,0,70,73,89,60,93,-0.01,50,14.00,32.00,-997.00
465,1589373402542,1,-3,0,0,0,0,70,73,90,60,93,0.02,50,15.00,43.00,-990.00
466,1589373402547,0,-2,0,0,0,0,70,73,90,60,93,0.07,50,18.00,43.00,-996.00
467,1589373402552,1,-3,0,0,0,0,70,73,90,60,93,0.20,50,39.00,52.00,-890.00
468,1589373402557,1,-3,0,0,0,0,70,73,90,60,93,-0.24,50,30.00,43.00,-1011.00
469,1589373402562,1,-3,0,0,0,0,70,73,90,60,93,0.10,50,33.00,38.00,-1008.00
470,1589373402568,0,-2,0,0,0,0,70,73,90,60,93,0.05,51,6.00,29.00,-972.00
471,1589373402573,0,-2,0,0,0,0,70,73,89,60,93,0.06,51,2.00,39.00,-1011.00
472,1589373402578,0,-2,0,0,0,0,70,73,89,60,93,0.08,51,9.00,24.00,-942.00
473,1589373402583,0,-2,0,0,0,0,70,73,89,60,93,0.10,51,24.00,42.00,-993.00
474,1589373402588,0,-2,0,0,0,0,70,73,88,60,93,-0.01,51,-7.00,26.00,-991.00
475,1589373402593,0,-1,0,0,0,0,70,73,87,60,93,-0.08,51,13.00,39.00,-1021.00
476,1589373402598,0,-2,0,0,0,0,70,73,87,60,93,-0.08,51,4.00,18.00,-1030.00
477,1589373402603,0,-2,0,0,0,0,70,73,87,60,93,-0.16,51,4.00,27.00,-1020.00
478,1589373402609,0,-1,0,0,0,0,70,73,87,60,93,0.27,51,-6.00,42.00,-1032.00
479,1589373402614,0,-1,0,0,0,0,70,73,86,60,93,-0.21,51,16.00,31.00,-970.00
480,1589373402619,0,-1,0,0,0,0,71,73,86,60,93,-0.01,52,14.00,34.00,-955.00
481,1589373402625,0,-2,0,0,0,0,71,73,87,60,93,0.65,52,18.00,23.00,-999.00
482,1589373402630,0,-2,0,0,0,0,71,73,87,60,93,0.19,52,21.00,25.00,-984.00
483,1589373402635,0,-2,0,0,0,0,71,73,88,60,93,0.30,52,-2.00,41.00,-1036.00
484,1589373402640,0,-1,1,0,0,0,71,73,88,60,93,0.25,52,58.00,21.00,-949.00
485,1589373402645,0,-1,1,0,0,0,71,73,88,60,93,0.44,52,8.00,29.00,-996.00
486,1589373402650,0,-2,0,0,0,0,71,73,88,60,93,0.07,52,5.00,19.00,-984.00
487,1589373402655,0,-1,0,0,0,0,71,73,89,60,93,0.33,52,49.00,20.00,-1010.00
488,1589373402660,1,-1,0,0,0,0,71,73,89,60,93,0.23,52,46.00,17.00,-974.00
489,1589373402665,1,-1,0,0,0,0,71,73,88,60,93,0.00,52,-14.00,24.00,-1004.00
490,1589373402671,1,-1,0,0,0,0,71,73,88,60,93,0.04,53,13.00,37.00,-1026.00
491,1589373402676,0,-1,0,0,0,0,71,73,87,60,93,0.26,53,19.00,22.00,-977.00
492,1589373402682,0,-1,0,0,0,0,71,73,88,60,93,0.26,53,35.00,28.00,-994.00
493,1589373402687,0,-1,0,0,0,0,71,73,87,60,93,0.28,53,27.00,31.00,-1009.00
494,1589373402692,0,-1,0,0,0,0,71,73,87,60,93,0.14,53,37.00,22.00,-996.00
495,1589373402697,0,-1,0,0,0,0,71,73,87,60,93,0.16,53,33.00,16.00,-962.00
496,1589373402702,0,-1,0,0,0,0,71,73,87,60,93,0.02,53,6.00,25.00,-1029.00
497,1589373402707,0,-1,0,0,0,0,71,73,86,60,93,0.09,53,31.00,17.00,-1002.00
498,1589373402712,0,-1,0,0,0,0,71,73,86,50,93,0.16,53,17.00,19.00,-1043.00
499,1589373402718,0,0,0,0,0,0,71,73,85,50,93,-0.18,53,0.00,18.00,-1019.00
500,1589373402724,0,-1,0,0,0,0,70,73,86,50,93,0.05,54,21.00,20.00,-967.00
501,1589373402729,0,-1,0,0,0,0,70,73,85,50,93,-0.25,54,20.00,6.00,-1017.00
502,1589373402734,0,-1,0,0,0,0,70,73,85,50,93,-0.00,54,1.00,1.00,-966.00
503,1589373402740,0,0,0,0,0,0,70,73,85,50,93,0.22,54,16.00,9.00,-962.00
504,1589373402745,0,0,0,0,0,0,70,73,84,50,93,-0.07,54,23.00,8.00,-977.00
505,1589373402750,0,0,0,0,0,0,70,73,84,50,93,0.02,54,-14.00,-1.00,-977.00
506,1589373402755,0,0,0,0,0,0,70,73,83,50,93,-0.06,54,10.00,3.00,-984.00
507,1589373402760,0,0,0,0,0,0,70,73,82,50,93,0.01,54,12.00,3.00,-993.00
508,1589373402765,0,0,0,0,0,0,70,73,82,50,93,-0.15,54,12.00,9.00,-1001.00
509,1589373402770,0,0,0,0,0,0,70,73,82,50,93,0.46,54,16.00,7.00,-1018.00
510,1589373402775,0,0,0,0,0,0,70,73,82,50,93,-0.04,55,-2.00,1.00,-1050.00
511,1589373402780,0,0,0,0,0,0,70,73,82,50,93,0.15,55,0.00,16.00,-1004.00
512,1589373402785,0,0,0,0,0,0,70,73,81,50,93,-0.06,55,-7.00,10.00,-1004.00
513,1589373402790,0,0,0,0,0,0,70,73,81,50,93,-0.13,55,4.00,1.00,-1000.00
514,1589373402795,0,0,0,0,0,0,70,73,81,50,93,0.15,55,19.00,0.00,-1007.00
515,1589373402800,0,0,0,0,0,0,70,73,81,50,93,0.38,55,4.00,0.00,-986.00
516,1589373402805,0,0,0,0,0,0,70,73,81,50,93,-0.00,55,-1.00,-2.00,-973.00
517,1589373402810,0,0,0,0,0,0,70,73,81,50,93,0.24,55,16.00,3.00,-993.00
518,1589373402815,0,0,0,0,0,0,70,73,81,50,93,0.22,55,2.00,0.00,-1017.00
519,1589373402820,0,0,0,0,0,0,70,73,81,50,93,0.33,55,7.00,-1.00,-1026.00
520,1589373402826,0,0,0,0,0,0,71,74,81,50,92,0.01,56,8.00,9.00,-999.00
521,1589373402831,0,0,0,0,0,0,71,74,81,50,92,0.06,56,22.00,11.00,-952.00
522,1589373402836,0,0,0,0,0,0,71,74,82,50,92,0.21,56,1.00,16.00,-1014.00
523,1589373402841,0,0,0,0,0,0,71,74,82,50,92,0.08,56,0.00,14.00,-994.00
524,1589373402846,0,0,0,0,0,0,71,74,82,50,92,0.18,56,-1.00,13.00,-996.00
525,1589373402851,0,-1,0,0,0,0,71,74,83,50,92,0.23,56,15.00,13.00,-1014.00
526,1589373402856,0,-1,0,0,0,0,71,74,84,50,92,0.27,56,2.00,8.00,-981.00
527,1589373402861,0,-1,0,0,0,0,71,74,84,50,92,0.40,56,0.00,12.00,-1010.00
528,1589373402866,0,-1,0,0,0,0,71,74,84,50,92,0.40,56,10.00,27.00,-988.00
529,1589373402871,0,0,0,0,0,0,71,74,84,50,92,0.20,56,22.00,26.00,-950.00
530,1589373402876,0,0,0,0,0,0,71,74,83,50,92,0.05,57,16.00,3.00,-979.00
531,1589373402881,0,-1,0,0,0,0,71,74,83,50,92,0.22,57,27.00,19.00,-962.00
532,1589373402886,0,-1,0,0,0,0,71,74,83,50,92,0.14,57,0.00,26.00,-1055.00
533,1589373402892,0,-1,0,0,0,0,71,74,84,50,92,0.05,57,-7.00,19.00,-1090.00
534,1589373402897,0,-1,0,0,0,0,71,74,85,50,92,0.21,57,13.00,13.00,-980.00
535,1589373402902,0,-1,0,0,0,0,71,74,84,50,92,0.22,57,13.00,14.00,-969.00
536,1589373402907,0,-1,0,0,0,0,71,74,84,50,92,0.17,57,13.00,16.00,-984.00
537,1589373402912,0,-1,0,0,0,0,71,74,83,50,92,0.27,57,-6.00,24.00,-1043.00
538,1589373402917,0,-1,0,0,0,0,71,74,83,50,92,0.21,57,20.00,11.00,-988.00
539,1589373402922,0,-1,0,0,0,0,71,74,83,50,92,0.36,57,0.00,-1.00,-973.00
540,1589373402927,0,-1,0,0,0,0,71,73,82,50,92,0.07,58,10.00,0.00,-979.00
541,1589373402932,0,0,0,0,0,0,71,73,81,50,92,0.13,58,4.00,13.00,-1036.00
542,1589373402938,0,0,0,0,0,0,71,73,80,50,92,0.11,58,6.00,2.00,-1005.00
543,1589373402943,0,0,0,0,0,0,71,73,80,50,92,-0.14,58,19.00,1.00,-928.00
544,1589373402948,0,0,0,0,0,0,71,73,79,50,92,-0.11,58,9.00,10.00,-1045.00
545,1589373402953,0,0,0,0,0,0,71,73,79,50,92,0.24,58,-8.00,5.00,-1004.00
546,1589373402958,0,0,0,0,0,0,71,73,78,50,92,0.16,58,8.00,-8.00,-1014.00
547,1589373402963,0,0,0,0,0,0,71,73,78,50,92,0.15,58,10.00,0.00,-991.00
548,1589373402968,0,0,0,0,0,0,71,73,78,50,92,0.24,58,11.00,1.00,-986.00
549,1589373402973,0,0,0,0,0,0,71,73,78,50,92,-0.01,58,4.00,-2.00,-983.00
550,1589373402978,0,0,0,0,0,0,71,74,77,50,92,0.03,59,12.00,-5.00,-957.00
551,1589373402984,0,0,0,0,0,0,71,74,77,50,92,0.10,59,-1.00,4.00,-982.00
552,1589373402989,0,0,0,0,0,0,71,74,77,50,92,0.08,59,7.00,-1.00,-1001.00
553,1589373402994,0,0,0,0,0,0,71,74,77,50,92,-0.03,59,14.00,3.00,-958.00
554,1589373402999,0,0,0,0,0,0,71,74,77,50,92,0.07,59,3.00,0.00,-1030.00
555,1589373403004,0,0,0,0,0,0,71,74,77,50,92,-0.03,59,12.00,-5.00,-1008.00
556,1589373403009,0,0,0,0,0,0,71,74,76,50,92,0.17,59,9.00,-6.00,-996.00
557,1589373403014,0,0,0,0,0,0,71,74,76,50,92,0.22,59,12.00,-1.00,-1013.00
558,1589373403019,0,0,0,0,0,0,71,74,76,50,92,0.26,59,17.00,-11.00,-986.00
559,1589373403024,0,0,0,0,0,0,71,74,76,50,92,0.06,59,-10.00,-19.00,-1010.00
560,1589373403030,0,0,0,0,0,0,71,74,77,50,92,0.08,60,-2.00,-23.00,-1014.00
561,1589373403035,0,0,0,0,0,0,71,74,77,50,92,0.20,60,7.00,4.00,-1007.00
562,1589373403040,0,0,0,0,0,0,71,74,77,50,92,0.22,60,-8.00,5.00,-996.00
563,1589373403045,0,1,0,0,0,0,71,74,76,50,92,0.02,60,43.00,2.00,-882.00
564,1589373403050,0,0,0,0,0,0,71,74,75,50,92,0.13,60,9.00,1.00,-1033.00
565,1589373403055,0,0,0,0,0,0,71,74,75,50,92,0.32,60,4.00,1.00,-1018.00
566,1589373403060,0,0,0,0,0,0,71,74,75,50,92,0.24,60,31.00,2.00,-991.00
567,1589373403065,0,0,0,0,0,0,71,74,75,50,92,0.10,60,-15.00,-3.00,-1023.00
568,1589373403071,0,0,0,0,0,0,71,74,74,50,92,0.04,60,-12.00,20.00,-1062.00
569,1589373403076,0,0,0,0,0,0,71,74,73,50,92,0.13,60,-3.00,16.00,-1038.00
570,1589373403081,0,0,0,0,0,0,71,74,72,50,92,0.09,61,-11.00,-5.00,-1039.00
571,1589373403086,0,0,0,0,0,0,71,74,71,50,92,0.28,61,34.00,43.00,-1089.00
572,1589373403091,0,-1,0,0,0,0,71,74,71,50,92,0.03,61,0.00,32.00,-1039.00
573,1589373403096,0,-1,0,0,0,0,71,74,71,50,92,0.20,61,15.00,16.00,-1030.00
574,1589373403102,0,-1,0,0,0,0,71,74,72,50,92,0.11,61,-6.00,11.00,-1126.00
575,1589373403107,1,-1,0,0,0,0,71,74,72,50,92,-0.14,61,59.00,23.00,-1030.00
576,1589373403112,1,-1,0,0,0,0,71,74,72,50,92,0.11,61,-20.00,14.00,-1112.00
577,1589373403117,1,-1,0,0,0,0,71,74,73,50,92,-0.19,61,-12.00,4.00,-1033.00
578,1589373403122,1,-1,0,0,0,0,71,74,74,50,92,0.20,61,38.00,9.00,-992.00
579,1589373403127,0,-1,0,0,0,0,71,74,74,50,92,0.30,61,21.00,24.00,-1049.00
580,1589373403132,0,-1,0,0,0,0,71,73,74,50,92,-0.12,62,-4.00,13.00,-1017.00
581,1589373403137,0,-1,0,0,0,0,71,73,75,50,92,0.31,62,19.00,21.00,-962.00
582,1589373403143,0,-1,0,0,0,0,71,73,75,50,92,0.26,62,4.00,15.00,-994.00
583,1589373403148,0,-1,0,0,0,0,71,73,75,50,92,0.48,62,29.00,13.00,-990.00
584,1589373403153,0,0,0,0,0,0,71,73,75,50,92,0.35,62,69.00,44.00,-925.00
585,1589373403158,0,0,0,0,0,0,71,73,75,50,92,0.28,62,-47.00,25.00,-1108.00
586,1589373403163,0,0,0,0,0,0,71,73,76,50,92,0.15,62,12.00,43.00,-1001.00
587,1589373403168,0,-1,0,0,0,0,71,73,77,50,92,0.16,62,16.00,30.00,-1078.00
588,1589373403173,0,-2,0,0,0,0,71,73,78,50,92,0.02,62,16.00,36.00,-1048.00
589,1589373403178,0,-2,0,0,0,0,71,73,78,50,92,0.48,62,11.00,30.00,-1036.00
590,1589373403183,0,-2,0,0,0,0,72,73,79,50,92,0.01,63,23.00,16.00,-975.00
591,1589373403188,0,-1,0,0,0,0,72,73,80,50,92,-0.11,63,18.00,22.00,-953.00
592,1589373403194,0,-1,0,0,0,0,72,73,80,50,92,0.30,63,35.00,13.00,-991.00
593,1589373403199,0,-1,0,0,0,0,72,73,80,50,92,0.28,63,30.00,9.00,-963.00
594,1589373403204,0,0,0,0,0,0,72,73,81,50,92,0.16,63,63.00,19.00,-908.00
595,1589373403209,0,0,0,0,0,0,72,73,82,50,92,-0.18,63,13.00,-1.00,-964.00
596,1589373403214,0,0,0,0,0,0,72,73,82,50,92,0.48,63,5.00,2.00,-1017.00
597,1589373403219,0,0,0,0,0,0,72,73,82,50,92,-0.04,63,31.00,7.00,-986.00
598,1589373403224,0,0,0,0,0,0,72,73,81,50,92,0.04,63,1.00,12.00,-1029.00
599,1589373403230,0,0,0,0,0,0,72,73,82,50,91,-0.35,63,13.00,3.00,-975.00
600,1589373403235,0,0,0,0,0,0,72,74,82,50,91,0.33,64,18.00,2.00,-915.00
601,1589373403240,0,0,0,0,0,0,72,74,82,50,91,0.16,64,9.00,16.00,-1028.00
602,1589373403245,0,0,0,0,0,0,72,74,82,50,91,0.23,64,7.00,14.00,-1010.00
603,1589373403251,0,0,0,0,0,0,72,74,82,50,91,0.15,64,12.00,20.00,-982.00
604,1589373403256,0,0,0,0,0,0,72,74,84,50,91,-0.07,64,8.00,10.00,-1012.00
605,1589373403262,0,-1,0,0,0,0,72,74,84,50,91,0.42,64,24.00,25.00,-1007.00
606,1589373403267,0,-1,0,0,0,0,72,74,84,50,91,0.33,64,3.00,2.00,-1015.00
607,1589373403273,0,-1,0,0,0,0,72,74,84,50,91,0.03,64,-1.00,10.00,-994.00
608,1589373403278,0,-1,0,0,0,0,72,74,83,50,91,-0.12,64,11.00,18.00,-1012.00
609,1589373403284,0,0,0,0,0,0,72,74,83,50,91,0.05,64,29.00,28.00,-967.00
610,1589373403289,0,0,0,0,0,0,72,74,83,50,91,0.03,65,-15.00,11.00,-977.00
611,1589373403294,0,0,0,0,0,0,72,74,83,50,91,0.20,65,-17.00,25.00,-1055.00
612,1589373403299,0,-1,0,0,0,0,72,74,84,50,91,0.45,65,34.00,26.00,-895.00
613,1589373403304,0,-1,0,0,0,0,72,74,84,50,91,0.17,65,-12.00,5.00,-975.00
614,1589373403309,0,-2,0,0,0,0,72,74,85,50,91,0.48,65,9.00,25.00,-1060.00
615,1589373403314,0,-2,0,0,0,0,72,74,85,50,91,0.25,65,3.00,38.00,-984.00
616,1589373403320,0,-2,0,0,0,0,72,74,85,50,91,0.33,65,-8.00,35.00,-1025.00
617,1589373403326,0,-2,0,0,0,0,72,74,86,50,91,0.01,65,10.00,26.00,-1055.00
618,1589373403331,0,-2,0,0,0,0,72,74,86,50,91,0.03,65,-12.00,33.00,-1050.00
619,1589373403336,0,-2,0,0,0,0,72,74,86,50,91,0.06,65,5.00,23.00,-1004.00
620,1589373403341,0,-1,0,0,0,0,71,75,86,60,91,0.42,66,13.00,22.00,-982.00
621,1589373403347,0,-1,0,0,0,0,71,75,87,60,91,0.17,66,3.00,27.00,-990.00
622,1589373403352,0,-1,0,0,0,0,71,75,87,60,91,0.42,66,-2.00,30.00,-987.00
623,1589373403357,0,-1,0,0,0,0,71,75,87,60,91,0.08,66,11.00,14.00,-960.00
624,1589373403362,0,-1,0,0,0,0,71,75,87,60,91,0.20,66,-5.00,23.00,-992.00
625,1589373403367,0,-1,0,0,0,0,71,75,86,60,91,0.34,66,-20.00,16.00,-1022.00
626,1589373403372,0,-1,0,0,0,0,71,75,85,60,91,0.41,66,7.00,19.00,-982.00
627,1589373403378,0,0,0,0,0,0,71,75,84,60,91,-0.02,66,5.00,16.00,-974.00
628,1589373403383,0,0,0,0,0,0,71,75,83,50,91,0.06,66,8.00,17.00,-1004.00
629,1589373403388,0,-1,0,0,0,0,71,75,82,50,91,0.06,67,12.00,4.00,-1001.00
630,1589373403393,0,-1,0,0,0,0,72,74,82,50,91,0.03,67,-3.00,22.00,-1041.00
631,1589373403399,0,0,0,0,0,0,72,74,81,50,91,0.05,67,23.00,9.00,-991.00
632,1589373403404,0,0,0,0,0,0,72,74,80,50,91,-0.00,67,-9.00,10.00,-1088.00
633,1589373403409,0,0,0,0,0,0,72,74,80,50,91,-0.03,67,-6.00,16.00,-1042.00
634,1589373403414,0,0,0,0,0,0,72,74,79,50,91,-0.27,67,22.00,20.00,-981.00
635,1589373403420,0,0,0,0,0,0,72,74,79,50,91,0.01,67,3.00,15.00,-993.00
636,1589373403425,0,0,0,0,0,0,72,74,80,50,91,0.35,67,-8.00,8.00,-1020.00
637,1589373403430,0,0,0,0,0,0,72,74,80,50,91,0.09,67,-14.00,20.00,-996.00
638,1589373403435,0,0,0,0,0,0,72,74,79,50,91,-0.07,67,0.00,8.00,-1016.00
639,1589373403440,0,0,0,0,0,0,72,74,79,50,91,-0.05,68,-3.00,18.00,-994.00
640,1589373403446,0,0,0,0,0,0,72,74,79,50,91,0.14,68,10.00,2.00,-997.00
641,1589373403451,0,0,0,0,0,0,72,74,80,50,91,-0.12,68,3.00,2.00,-1001.00
642,1589373403456,0,0,0,0,0,0,72,74,80,50,91,0.02,68,17.00,9.00,-976.00
643,1589373403461,0,0,0,0,0,0,72,74,80,50,91,0.01,68,17.00,17.00,-983.00
644,1589373403466,0,0,0,0,0,0,72,74,80,50,91,0.44,68,0.00,7.00,-1004.00
645,1589373403471,0,0,0,0,0,0,72,74,80,50,91,0.03,68,13.00,14.00,-1021.00
646,1589373403476,0,0,0,0,0,0,72,74,80,50,91,0.23,68,2.00,14.00,-999.00
647,1589373403481,0,0,0,0,0,0,72,74,80,50,91,0.20,68,0.00,14.00,-1032.00
648,1589373403486,0,0,0,0,0,0,72,74,80,50,91,0.05,68,-3.00,16.00,-974.00
649,1589373403492,0,0,0,0,0,0,72,74,80,50,91,0.08,69,0.00,8.00,-1030.00
650,1589373403497,0,0,0,0,0,0,72,75,79,50,91,0.22,69,3.00,10.00,-961.00
651,1589373403502,0,0,0,0,0,0,72,75,79,50,91,0.04,69,-6.00,9.00,-994.00
652,1589373403507,0,0,0,0,0,0,72,75,79,50,91,0.00,69,-28.00,12.00,-1048.00
653,1589373403512,0,0,0,0,0,0,72,75,79,50,91,0.01,69,10.00,5.00,-987.00
654,1589373403517,0,0,0,0,0,0,72,75,79,50,91,0.11,69,0.00,2.00,-1011.00
655,1589373403522,0,0,0,0,0,0,72,75,80,50,91,0.19,69,-7.00,15.00,-1009.00
656,1589373403527,0,0,0,0,0,0,72,75,80,50,91,0.09,69,-1.00,6.00,-1009.00
657,1589373403532,0,0,0,0,0,0,72,75,80,50,91,-0.18,69,16.00,14.00,-997.00
658,1589373403538,0,0,0,0,0,0,72,75,80,50,91,-0.04,69,10.00,-1.00,-984.00
659,1589373403543,0,0,0,0,0,0,72,75,80,50,91,0.08,70,13.00,6.00,-1018.00
660,1589373403548,0,0,0,0,0,0,72,75,81,50,91,-0.13,70,-6.00,0.00,-981.00
661,1589373403553,0,0,0,0,0,0,72,75,81,50,91,0.19,70,13.00,2.00,-1017.00
662,1589373403558,0,0,0,0,0,0,72,75,82,50,91,0.33,70,12.00,3.00,-999.00
663,1589373403563,0,0,0,0,0,0,72,75,82,50,91,-0.01,70,24.00,13.00,-982.00
664,1589373403568,0,0,0,0,0,0,72,75,82,50,91,0.12,70,6.00,0.00,-938.00
665,1589373403574,0,0,0,0,0,0,72,75,82,50,91,0.00,70,19.00,8.00,-1026.00
666,1589373403579,0,0,0,0,0,0,72,75,82,50,91,0.09,70,-24.00,2.00,-1050.00
667,1589373403584,0,0,0,0,0,0,72,75,82,50,91,0.01,70,7.00,4.00,-977.00
668,1589373403589,0,0,0,0,0,0,72,75,83,50,91,0.37,70,12.00,0.00,-981.00
669,1589373403594,0,0,0,0,0,0,72,75,83,50,90,0.03,71,13.00,1.00,-1024.00
670,1589373403599,0,0,0,0,0,0,72,75,83,50,90,-0.09,71,13.00,9.00,-1001.00
671,1589373403604,0,0,0,0,0,0,72,75,83,50,90,0.18,71,37.00,3.00,-947.00
672,1589373403609,0,0,0,0,0,0,72,75,83,50,90,0.27,71,-8.00,-5.00,-970.00
673,1589373403614,0,0,0,0,0,0,72,75,83,50,90,0.24,71,-30.00,-14.00,-1104.00
674,1589373403620,0,0,0,0,0,0,72,75,84,50,90,-0.14,71,8.00,2.00,-1042.00
675,1589373403625,0,0,0,0,0,0,72,75,84,50,90,0.11,71,13.00,5.00,-990.00
676,1589373403630,0,0,0,0,0,0,72,75,84,50,90,0.23,71,15.00,-12.00,-967.00
677,1589373403635,0,0,0,0,0,0,72,75,83,50,90,0.01,71,-5.00,-5.00,-1032.00
678,1589373403640,0,0,0,0,0,0,72,75,83,50,90,0.34,71,12.00,6.00,-1058.00
679,1589373403645,0,0,0,0,0,0,72,75,84,50,90,0.34,72,8.00,7.00,-1037.00
680,1589373403650,0,0,0,0,0,0,73,75,84,50,90,0.13,72,-13.00,-2.00,-1001.00
681,1589373403656,0,0,0,0,0,0,73,75,83,50,90,0.18,72,2.00,-3.00,-981.00
682,1589373403661,0,0,0,0,0,0,73,75,83,50,90,0.15,72,22.00,11.00,-992.00
683,1589373403666,0,0,0,0,0,0,73,75,82,50,90,0.26,72,27.00,5.00,-1028.00
684,1589373403672,0,0,0,0,0,0,73,75,82,50,90,0.11,72,22.00,12.00,-1039.00
685,1589373403677,0,0,0,0,0,0,73,75,82,50,90,0.09,72,3.00,-3.00,-979.00
686,1589373403682,0,0,0,0,0,0,73,75,82,50,90,0.17,72,10.00,14.00,-993.00
687,1589373403687,0,0,0,0,0,0,73,75,81,50,90,0.21,72,9.00,7.00,-1033.00
688,1589373403693,0,0,0,0,0,0,73,75,80,50,90,-0.01,72,-2.00,-5.00,-964.00
689,1589373403698,0,0,0,0,0,0,73,75,80,50,90,0.17,73,-1.00,4.00,-998.00
690,1589373403703,0,0,0,0,0,0,73,75,79,50,90,0.15,73,32.00,14.00,-941.00
691,1589373403708,0,0,0,0,0,0,73,75,78,50,90,0.16,73,5.00,14.00,-979.00
692,1589373403713,0,0,0,0,0,0,73,75,77,50,90,0.07,73,-9.00,-4.00,-1013.00
693,1589373403719,-1,0,0,0,0,0,73,75,77,50,90,0.37,73,-33.00,-12.00,-1068.00
694,1589373403724,-1,-1,0,0,0,0,73,75,77,50,90,0.31,73,33.00,21.00,-982.00
695,1589373403729,-1,0,0,0,0,0,73,75,77,50,90,0.01,73,7.00,2.00,-981.00
696,1589373403734,0,0,0,0,0,0,73,75,77,50,90,-0.02,73,-9.00,-4.00,-1024.00
697,1589373403739,0,0,0,0,0,0,73,75,77,50,90,0.08,73,13.00,-2.00,-940.00
698,1589373403745,0,0,0,0,0,0,73,75,77,50,90,-0.12,73,-3.00,-12.00,-1012.00
699,1589373403750,0,0,0,0,0,0,73,75,78,50,90,-0.06,74,26.00,20.00,-1043.00
700,1589373403755,0,0,0,0,0,0,72,75,78,50,90,0.02,74,-12.00,-12.00,-1006.00
701,1589373403760,0,0,0,0,0,0,72,75,78,50,90,0.10,74,14.00,-11.00,-941.00
702,1589373403765,0,0,0,0,0,0,72,75,78,50,90,0.14,74,45.00,0.00,-899.00
703,1589373403771,0,0,0,0,0,0,72,75,78,50,90,-0.07,74,4.00,-3.00,-1001.00
704,1589373403776,0,0,0,0,0,0,72,75,78,50,90,0.28,74,17.00,7.00,-993.00
705,1589373403781,0,0,0,0,0,0,72,75,78,50,90,0.42,74,35.00,24.00,-944.00
706,1589373403786,0,0,0,0,0,0,72,75,79,50,90,0.24,74,0.00,-9.00,-1040.00
707,1589373403791,0,0,0,0,0,0,72,75,79,50,90,0.21,74,25.00,11.00,-937.00
708,1589373403797,0,0,0,0,0,0,72,75,79,50,90,0.10,74,9.00,-2.00,-991.00
709,1589373403802,0,0,0,0,0,0,72,75,79,50,90,0.42,75,20.00,11.00,-1010.00
710,1589373403807,0,0,0,0,0,0,72,76,79,50,90,0.06,75,27.00,-2.00,-933.00
711,1589373403812,0,0,0,0,0,0,72,76,79,50,90,-0.10,75,7.00,13.00,-982.00
712,1589373403817,0,0,0,0,0,0,72,76,79,50,90,0.12,75,-22.00,7.00,-1041.00
713,1589373403822,0,0,0,0,0,0,72,76,79,50,90,0.30,75,6.00,-12.00,-947.00
714,1589373403827,0,0,0,0,0,0,72,76,79,50,90,0.28,75,5.00,5.00,-1009.00
715,1589373403833,0,0,0,0,0,0,72,76,79,50,90,0.23,75,1.00,11.00,-1022.00
716,1589373403838,0,0,0,0,0,0,72,76,80,50,90,0.06,75,7.00,-14.00,-964.00
717,1589373403843,0,0,0,0,0,0,72,76,80,50,90,-0.04,75,31.00,0.00,-961.00
718,1589373403848,0,0,0,0,0,0,72,76,80,50,90,0.16,75,35.00,18.00,-985.00
719,1589373403853,0,0,0,0,0,0,72,76,80,50,90,0.02,76,-16.00,7.00,-1044.00
720,1589373403859,0,0,0,0,0,0,72,75,81,50,90,0.14,76,0.00,-3.00,-1013.00
721,1589373403864,0,0,0,0,0,0,72,75,81,50,90,0.41,76,-10.00,-5.00,-1022.00
722,1589373403869,0,0,0,0,0,0,72,75,81,50,90,0.32,76,1.00,17.00,-1103.00
723,1589373403874,0,0,0,0,0,0,72,75,82,50,90,0.04,76,3.00,5.00,-989.00
724,1589373403879,0,0,0,0,0,0,72,75,82,50,90,0.08,76,24.00,-7.00,-970.00
725,1589373403884,0,0,0,0,0,0,72,75,82,50,90,-0.13,76,-8.00,-3.00,-1033.00
726,1589373403889,0,0,0,0,0,0,72,75,83,50,90,0.31,76,30.00,5.00,-945.00
727,1589373403895,0,0,0,0,0,0,72,75,82,50,90,0.07,76,11.00,-17.00,-962.00
728,1589373403900,0,0,0,0,0,0,72,75,82,50,90,0.37,76,-1.00,12.00,-1040.00
729,1589373403906,0,0,0,0,0,0,72,75,82,50,90,0.21,77,0.00,8.00,-1037.00
730,1589373403911,0,0,0,0,0,0,73,76,82,50,90,0.24,77,4.00,-2.00,-989.00
731,1589373403916,0,0,0,0,0,0,73,76,82,50,90,-0.15,77,5.00,7.00,-1022.00
732,1589373403921,0,0,0,0,0,0,73,76,82,50,90,0.16,77,6.00,2.00,-976.00
733,1589373403927,0,0,0,0,0,0,73,76,82,50,90,-0.20,77,-3.00,13.00,-1040.00
734,1589373403932,0,0,0,0,0,0,73,76,82,50,90,0.13,77,10.00,9.00,-1000.00
735,1589373403937,0,0,0,0,0,0,73,76,83,50,90,0.48,77,54.00,18.00,-987.00
736,1589373403943,0,0,0,0,0,0,73,76,83,50,90,0.62,77,9.00,6.00,-996.00
737,1589373403948,0,-1,0,0,0,0,73,76,84,50,90,0.20,77,32.00,17.00,-1009.00
738,1589373403953,0,-1,0,0,0,0,73,76,84,50,90,-0.00,77,23.00,6.00,-976.00
739,1589373403958,0,-1,0,0,0,0,73,76,84,50,90,0.61,78,8.00,19.00,-994.00
740,1589373403963,0,-1,0,0,0,0,73,76,84,50,90,0.09,78,0.00,-3.00,-999.00
741,1589373403969,0,-1,0,0,0,0,73,76,84,50,90,0.12,78,-1.00,11.00,-1051.00
742,1589373403974,0,0,0,0,0,0,73,76,83,50,90,0.09,78,7.00,-3.00,-995.00
743,1589373403979,0,0,0,0,0,0,73,76,84,50,90,0.33,78,17.00,7.00,-1007.00
744,1589373403984,0,0,0,0,0,0,73,76,83,50,90,0.08,78,-3.00,-2.00,-952.00
745,1589373403989,0,0,0,0,0,0,73,76,84,50,90,-0.10,78,-19.00,-9.00,-939.00
746,1589373403994,0,0,0,0,0,0,73,76,83,50,90,-0.13,78,26.00,2.00,-982.00
747,1589373404000,0,0,0,0,0,0,73,76,83,50,90,0.20,78,4.00,2.00,-998.00
748,1589373404005,0,0,0,0,0,0,73,76,83,50,90,0.07,78,16.00,0.00,-985.00
749,1589373404010,0,0,0,0,0,0,73,76,83,50,90,0.19,79,6.00,5.00,-1010.00
750,1589373404015,0,0,0,0,0,0,73,76,83,50,90,0.37,79,1.00,0.00,-978.00
751,1589373404020,0,0,0,0,0,0,73,76,83,50,90,0.30,79,3.00,1.00,-987.00
752,1589373404025,0,0,0,0,0,0,73,76,83,50,90,0.32,79,0.00,-6.00,-1029.00
753,1589373404031,0,0,0,0,0,0,73,76,82,50,90,0.32,79,5.00,1.00,-1030.00
754,1589373404036,0,0,0,0,0,0,73,76,82,50,90,-0.17,79,-4.00,3.00,-1038.00
755,1589373404041,0,0,0,0,0,0,73,76,82,50,90,0.14,79,7.00,-6.00,-975.00
756,1589373404046,0,0,0,0,0,0,73,76,82,50,90,-0.11,79,13.00,-18.00,-981.00
757,1589373404052,0,0,0,0,0,0,73,76,82,50,90,0.21,79,21.00,-10.00,-978.00
758,1589373404057,0,0,0,0,0,0,73,76,83,50,89,0.52,79,3.00,-3.00,-1034.00
759,1589373404062,0,0,0,0,0,0,73,76,83,50,89,0.19,80,9.00,-2.00,-983.00
760,1589373404067,0,0,0,0,0,0,73,75,83,50,89,0.37,80,6.00,0.00,-995.00
761,1589373404072,0,0,0,0,0,0,73,75,83,50,89,0.25,80,-19.00,-12.00,-1020.00
762,1589373404077,0,0,0,0,0,0,73,75,82,50,89,0.30,80,34.00,9.00,-971.00
763,1589373404083,0,0,0,0,0,0,73,75,82,50,89,0.40,80,12.00,3.00,-957.00
764,1589373404088,0,0,0,0,0,0,73,75,82,50,89,0.37,80,17.00,-5.00,-948.00
765,1589373404093,0,0,0,0,0,0,73,75,81,50,89,0.22,80,22.00,0.00,-993.00
766,1589373404099,0,0,0,0,0,0,73,75,81,50,89,0.09,80,10.00,13.00,-1068.00
767,1589373404104,0,0,0,0,0,0,73,75,80,50,89,0.13,80,11.00,0.00,-976.00
768,1589373404109,0,0,0,0,0,0,73,75,80,50,89,0.24,80,17.00,18.00,-1038.00
769,1589373404114,0,0,0,0,0,0,73,75,79,50,89,-0.07,81,25.00,2.00,-996.00
770,1589373404119,0,0,0,0,0,0,73,76,79,50,89,0.07,81,-7.00,15.00,-997.00
771,1589373404125,0,0,0,0,0,0,73,76,78,50,89,0.24,81,1.00,-1.00,-1013.00
772,1589373404130,0,0,0,0,0,0,73,76,78,50,89,0.11,81,-25.00,-8.00,-1042.00
773,1589373404135,0,0,0,0,0,0,73,76,78,50,89,0.12,81,10.00,-11.00,-1003.00
774,1589373404140,0,0,0,0,0,0,73,76,79,50,89,-0.04,81,18.00,-7.00,-1038.00
775,1589373404145,0,0,0,0,0,0,73,76,78,50,89,0.16,81,9.00,-5.00,-1020.00
776,1589373404151,0,0,0,0,0,0,73,76,78,50,89,-0.11,81,19.00,9.00,-1040.00
777,1589373404156,0,0,0,0,0,0,73,76,79,50,89,0.18,81,29.00,5.00,-1005.00
778,1589373404161,0,0,0,0,0,0,73,76,79,50,89,0.11,81,-12.00,-4.00,-1002.00
779,1589373404166,0,0,0,0,0,0,73,76,79,50,89,0.26,82,-8.00,-1.00,-989.00
780,1589373404171,0,0,0,0,0,0,73,76,79,50,89,0.39,82,14.00,5.00,-982.00
781,1589373404177,0,0,0,0,0,0,73,76,79,50,89,0.23,82,5.00,-5.00,-1012.00
782,1589373404182,0,0,0,0,0,0,73,76,79,50,89,0.25,82,19.00,0.00,-1079.00
783,1589373404187,0,0,0,0,0,0,73,76,79,50,89,0.22,82,29.00,11.00,-930.00
784,1589373404193,0,0,0,0,0,0,73,76,79,50,89,0.08,82,5.00,-8.00,-990.00
785,1589373404198,0,0,0,0,0,0,73,76,79,50,89,0.22,82,3.00,-2.00,-1018.00
786,1589373404204,0,0,0,0,0,0,73,76,79,50,89,0.16,82,8.00,-10.00,-1018.00
787,1589373404209,0,0,0,0,0,0,73,76,79,50,89,0.51,82,0.00,-6.00,-1004.00
788,1589373404214,0,0,0,0,0,0,73,76,80,50,89,0.19,82,38.00,10.00,-1048.00
789,1589373404219,0,0,0,0,0,0,73,76,80,50,89,0.22,83,7.00,-4.00,-1013.00
790,1589373404225,0,0,0,0,0,0,73,76,81,50,89,0.18,83,11.00,-6.00,-1007.00
791,1589373404230,0,0,0,0,0,0,73,76,81,50,89,0.29,83,15.00,-1.00,-1031.00
792,1589373404235,0,0,0,0,0,0,73,76,81,50,89,0.30,83,21.00,-16.00,-960.00
793,1589373404240,0,0,0,0,0,0,73,76,81,50,89,0.53,83,22.00,-13.00,-995.00
794,1589373404245,0,1,0,0,0,0,73,76,81,50,89,0.12,83,8.00,-5.00,-1010.00
795,1589373404251,0,1,0,0,0,0,73,76,80,50,89,0.16,83,5.00,-12.00,-995.00
796,1589373404256,0,1,0,0,0,0,73,76,81,50,89,0.42,83,-6.00,-5.00,-1029.00
797,1589373404262,0,1,0,0,0,0,73,76,81,50,89,0.13,83,-30.00,-19.00,-1060.00
798,1589373404267,0,0,0,0,0,0,73,76,81,50,89,0.58,84,32.00,22.00,-1040.00
799,1589373404272,0,0,0,0,0,0,73,76,80,50,89,0.16,84,10.00,-13.00,-973.00
800,1589373404277,0,0,0,0,0,0,74,76,79,50,89,0.16,84,40.00,8.00,-920.00
801,1589373404283,0,0,0,0,0,0,74,76,79,50,89,0.50,84,2.00,-17.00,-993.00
802,1589373404288,0,0,0,0,0,0,74,76,79,50,89,0.18,84,-68.00,-24.00,-1137.00
803,1589373404293,0,0,0,0,0,0,74,76,78,50,89,0.24,84,15.00,4.00,-973.00
804,1589373404298,0,0,0,0,0,0,74,76,78,50,89,0.29,84,9.00,12.00,-1028.00
805,1589373404303,0,0,0,0,0,0,74,76,77,50,89,0.12,84,-3.00,1.00,-993.00
806,1589373404309,0,0,0,0,0,0,74,76,78,50,89,0.27,84,-11.00,15.00,-1057.00
