,timestamp,pitch,roll,yaw,vgx,vgy,vgz,templ,temph,tof,height,battery,barometer,time,agx,agy,agz
0,1589374055264,0,0,0,0,0,0,56,58,10,0,94,-0.99,0,0.00,-2.00,-1000.00
1,1589374055279,0,0,0,0,0,0,56,58,10,0,94,-0.99,0,5.00,1.00,-999.00
2,1589374055286,0,0,0,0,0,0,56,58,10,0,94,-0.99,0,-8.00,5.00,-1014.00
3,1589374055291,0,0,0,0,0,0,56,58,10,0,94,-0.99,0,-11.00,8.00,-994.00
4,1589374055296,0,0,0,0,0,0,56,58,10,0,94,-0.99,0,-13.00,15.00,-1140.00
5,1589374055302,0,0,0,0,0,0,56,58,10,0,94,-0.99,0,0.00,2.00,-1317.00
6,1589374055308,0,0,0,0,0,-3,56,58,10,0,94,-0.99,0,0.00,-17.00,-1267.00
7,1589374055313,0,0,0,0,0,-6,56,58,14,0,94,-0.75,0,-21.00,11.00,-1098.00
8,1589374055318,0,0,0,0,0,-7,56,58,24,10,94,-0.48,0,-4.00,-24.00,-1004.00
9,1589374055324,0,-1,0,0,0,-7,56,58,32,10,94,-0.72,0,-36.00,-57.00,-1002.00
10,1589374055330,0,0,0,0,0,-7,57,59,39,20,94,-0.38,1,-132.00,-52.00,-900.00
11,1589374055335,-2,1,0,-1,0,-6,57,59,44,30,94,-0.52,1,-79.00,-18.00,-912.00
12,1589374055340,-6,2,0,-2,0,-5,57,59,50,30,94,-0.32,1,-36.00,-71.00,-884.00
13,1589374055345,-6,2,0,-1,0,-4,57,59,54,40,94,0.06,1,-23.00,-17.00,-874.00
14,1589374055350,-6,1,0,-1,0,-3,57,59,59,40,94,-0.18,1,-49.00,-80.00,-924.00
15,1589374055355,-6,1,0,-1,0,-2,57,59,62,40,94,-0.04,1,-53.00,-53.00,-927.00
16,1589374055360,-4,3,0,0,-1,-1,57,59,65,40,94,-0.11,1,-69.00,-36.00,-1039.00
17,1589374055365,-4,3,0,0,0,-1,57,59,68,50,94,-0.66,1,-27.00,-55.00,-920.00
18,1589374055370,-5,3,0,0,0,-1,57,59,70,50,94,-0.63,1,-36.00,-74.00,-944.00
19,1589374055376,-4,2,0,0,0,-1,57,59,73,50,94,-0.39,1,-76.00,-24.00,-1068.00
20,1589374055381,-4,5,1,0,0,-1,57,59,76,50,94,-0.34,2,-71.00,17.00,-988.00
21,1589374055386,-4,4,1,0,0,-1,57,59,77,50,94,0.26,2,-40.00,29.00,-964.00
22,1589374055391,-4,1,1,0,1,-1,57,59,80,60,94,0.25,2,-29.00,2.00,-976.00
23,1589374055396,-4,0,1,0,1,-1,57,59,82,60,94,0.02,2,-58.00,6.00,-1013.00
24,1589374055401,-2,0,1,0,1,-1,57,59,83,60,94,0.47,2,-71.00,2.00,-921.00
25,1589374055406,-3,0,0,0,0,0,57,59,85,60,94,0.12,2,-53.00,-13.00,-962.00
26,1589374055411,-3,-1,0,0,0,0,57,59,85,60,94,0.26,2,-25.00,5.00,-918.00
27,1589374055416,-4,0,0,0,0,0,57,59,85,60,94,0.17,2,7.00,39.00,-953.00
28,1589374055421,-2,0,0,0,0,0,57,59,84,60,94,0.27,2,-20.00,16.00,-958.00
29,1589374055426,-1,0,0,0,0,0,57,59,85,60,94,0.47,2,-28.00,1.00,-1028.00
30,1589374055431,-2,-1,0,0,0,0,57,59,85,60,94,0.47,3,-2.00,-28.00,-971.00
31,1589374055436,-3,0,0,0,0,0,57,59,83,60,94,-0.18,3,-19.00,-35.00,-1071.00
32,1589374055441,0,1,0,0,0,0,57,59,84,60,94,-0.23,3,-50.00,-20.00,-1037.00
33,1589374055446,-1,1,0,0,0,0,57,59,83,60,94,0.22,3,-48.00,-1.00,-990.00
34,1589374055452,-3,2,1,0,0,0,57,59,83,60,94,-0.13,3,-36.00,-11.00,-1027.00
35,1589374055457,-3,0,1,0,0,0,57,59,84,60,94,0.16,3,-48.00,0.00,-979.00
36,1589374055463,-3,1,0,0,0,0,57,59,84,60,94,0.03,3,-54.00,-9.00,-964.00
37,1589374055468,-2,0,0,0,0,0,57,59,84,60,94,0.09,3,-6.00,-16.00,-980.00
38,1589374055473,-3,0,0,0,0,0,57,59,84,60,94,-0.32,3,-41.00,0.00,-1099.00
39,1589374055478,-2,0,1,0,0,0,57,59,84,60,94,-0.33,3,-61.00,27.00,-1014.00
40,1589374055483,-2,2,1,0,0,0,57,60,84,60,94,0.25,4,-20.00,-27.00,-875.00
41,1589374055488,-3,0,0,0,0,0,57,60,85,60,94,0.10,4,-42.00,-66.00,-1077.00
42,1589374055493,-2,0,0,0,0,0,57,60,84,60,94,-0.24,4,-73.00,-20.00,-1092.00
43,1589374055498,-2,1,1,0,0,0,57,60,84,60,94,0.20,4,-60.00,-59.00,-1015.00
44,1589374055504,-3,2,0,0,0,0,59,62,75,60,94,-0.33,8,-47.00,-60.00,-1034.00
45,1589374055509,-3,3,0,0,0,0,59,62,75,60,94,-0.51,8,-37.00,-64.00,-910.00
46,1589374055514,-2,3,0,0,0,0,59,62,75,60,94,-0.08,8,-47.00,-34.00,-1089.00
47,1589374055519,-3,3,0,0,0,0,59,62,75,60,94,-0.01,8,-40.00,-64.00,-1022.00
48,1589374055524,-3,3,0,0,0,0,59,62,76,60,94,-0.04,8,-29.00,-52.00,-947.00
49,1589374055529,-2,3,0,1,0,0,59,62,77,60,94,-0.28,8,-29.00,-26.00,-1005.00
50,1589374055534,-2,3,0,0,0,0,59,62,77,60,94,0.37,9,-27.00,-24.00,-975.00
51,1589374055540,-2,3,1,0,0,0,59,62,78,60,94,-0.26,9,-65.00,-19.00,-980.00
52,1589374055545,-2,1,1,0,0,0,59,62,79,60,94,0.12,9,-62.00,-21.00,-975.00
53,1589374055550,-2,0,1,0,0,0,59,62,80,60,94,-0.04,9,-31.00,-11.00,-1000.00
54,1589374055555,-2,0,1,0,0,0,59,62,80,60,94,-0.16,9,-13.00,-16.00,-976.00
55,1589374055560,-2,0,1,0,0,0,59,62,80,60,94,0.02,9,-18.00,-35.00,-992.00
56,1589374055565,-1,0,0,1,0,0,59,62,79,60,94,-0.20,9,0.00,-35.00,-921.00
57,1589374055570,-1,0,0,1,0,0,59,62,79,60,94,-0.43,9,-5.00,-36.00,-971.00
58,1589374055575,-1,1,0,0,0,0,59,62,79,60,94,-0.38,9,-42.00,-16.00,-1025.00
59,1589374055580,-1,0,0,0,0,0,59,62,80,60,94,-0.18,9,-35.00,-44.00,-1015.00
60,1589374055586,-1,0,0,0,0,0,59,62,79,60,94,-0.34,10,-17.00,-16.00,-1067.00
61,1589374055591,-1,1,0,0,0,0,60,62,80,60,94,-0.04,10,-5.00,-14.00,-989.00
62,1589374055596,-1,1,1,0,0,0,60,62,81,60,94,0.26,10,-7.00,-31.00,-967.00
63,1589374055602,-1,1,1,0,0,0,60,62,81,60,94,0.26,10,-17.00,-9.00,-974.00
64,1589374055607,-1,1,1,0,0,0,60,62,83,60,94,-0.10,10,-11.00,-11.00,-984.00
65,1589374055612,0,0,1,0,0,0,60,62,82,60,94,0.02,10,-43.00,7.00,-919.00
66,1589374055617,-1,1,1,0,0,0,60,62,83,60,94,0.47,10,-33.00,8.00,-979.00
67,1589374055622,-2,0,1,0,0,0,60,62,84,60,94,0.24,10,-21.00,3.00,-1070.00
68,1589374055627,-3,0,1,0,0,0,60,62,83,60,94,-0.32,10,-17.00,11.00,-987.00
69,1589374055632,-2,0,1,0,0,0,60,62,84,60,94,-0.47,10,-43.00,17.00,-999.00
70,1589374055637,-2,-1,0,0,0,0,60,62,84,60,94,-0.03,11,-82.00,-7.00,-1054.00
71,1589374055643,-2,-1,0,0,0,0,60,62,84,60,94,-0.55,11,-96.00,-5.00,-1067.00
72,1589374055648,-3,0,0,0,0,0,60,62,84,60,94,-0.11,11,-84.00,12.00,-1011.00
73,1589374055653,-4,0,0,0,0,0,60,62,84,60,94,0.15,11,-58.00,19.00,-987.00
74,1589374055658,-4,0,0,0,0,0,60,62,85,60,94,-0.12,11,-49.00,-41.00,-953.00
75,1589374055663,-3,-1,0,0,0,0,60,62,83,60,94,0.09,11,-85.00,-6.00,-1063.00
76,1589374055669,-5,0,0,0,0,0,60,62,83,60,94,-0.04,11,-53.00,-22.00,-1019.00
77,1589374055674,-4,0,1,0,0,0,60,62,83,60,94,-0.25,11,-89.00,-16.00,-1009.00
78,1589374055679,-3,1,0,0,0,0,60,62,83,60,94,-0.43,11,-90.00,-14.00,-959.00
79,1589374055684,-5,1,0,0,0,0,60,62,81,60,94,0.04,11,-48.00,-1.00,-1002.00
80,1589374055689,-5,1,1,0,0,0,60,62,82,60,94,-0.23,12,-105.00,10.00,-1002.00
81,1589374055694,-4,0,0,0,0,0,61,63,82,60,94,-0.18,12,-100.00,-15.00,-1004.00
82,1589374055700,-5,-1,0,0,0,0,61,63,82,60,94,-0.03,12,-86.00,-24.00,-965.00
83,1589374055705,-6,0,0,0,0,0,61,63,79,60,94,-0.28,12,-51.00,-38.00,-962.00
84,1589374055710,-5,1,0,0,0,0,61,63,79,60,94,-0.17,12,-55.00,-52.00,-995.00
85,1589374055715,-4,1,0,0,0,0,61,63,79,60,94,-0.23,12,-54.00,-63.00,-1094.00
86,1589374055720,-4,1,0,0,-1,0,61,63,78,60,94,-0.22,12,-58.00,-95.00,-984.00
87,1589374055726,-4,4,0,0,-1,0,61,63,78,60,94,-0.45,12,-62.00,-74.00,-1003.00
88,1589374055731,-4,3,0,0,0,0,61,63,76,60,94,-0.45,12,-9.00,-1.00,-1004.00
89,1589374055736,-3,1,0,0,0,0,61,63,76,60,94,-0.67,12,-75.00,-36.00,-1069.00
90,1589374055741,-3,4,0,0,0,0,61,63,76,60,94,-0.25,13,-74.00,-55.00,-986.00
91,1589374055747,-5,3,0,0,0,0,60,63,75,60,94,-0.12,13,-51.00,-20.00,-921.00
92,1589374055752,-5,2,0,0,0,0,60,63,74,60,94,0.07,13,-15.00,-36.00,-1041.00
93,1589374055757,-5,0,0,0,0,0,60,63,77,60,94,-0.43,13,-75.00,-60.00,-1030.00
94,1589374055762,-2,0,0,0,0,0,60,63,77,60,94,-0.31,13,-23.00,-79.00,-989.00
95,1589374055767,-3,1,0,0,0,0,60,63,77,60,94,-0.20,13,-36.00,-42.00,-1009.00
96,1589374055773,-2,3,1,1,0,0,60,63,78,60,94,0.15,13,-57.00,-13.00,-973.00
97,1589374055778,-2,4,1,0,0,0,60,63,77,60,94,0.24,13,-18.00,-18.00,-995.00
98,1589374055783,-2,2,0,0,0,0,60,63,78,60,94,-0.23,13,-34.00,-21.00,-979.00
99,1589374055788,-2,0,1,0,0,0,60,63,79,60,94,-0.05,13,-61.00,-32.00,-1021.00
100,1589374055793,-3,1,1,0,0,0,60,63,79,60,94,0.12,14,-51.00,-19.00,-1059.00
101,1589374055798,-2,0,1,0,0,0,61,64,79,60,94,0.18,14,-47.00,-12.00,-987.00
102,1589374055804,-2,0,1,0,0,0,61,64,80,60,94,-0.00,14,-35.00,-3.00,-948.00
103,1589374055809,-1,0,1,1,0,0,61,64,80,60,94,0.11,14,-32.00,-12.00,-967.00
104,1589374055814,-1,0,0,1,0,0,61,64,80,60,94,0.22,14,-32.00,-9.00,-973.00
105,1589374055819,-1,0,0,1,0,0,61,64,80,60,94,0.00,14,-15.00,-26.00,-962.00
106,1589374055824,0,0,0,0,0,0,61,64,79,60,94,-0.29,14,8.00,-14.00,-898.00
107,1589374055829,-1,0,0,0,0,0,61,64,78,60,94,-0.09,14,-5.00,-26.00,-981.00
108,1589374055834,0,0,0,1,0,0,61,64,78,60,94,-0.16,14,-14.00,-6.00,-1043.00
109,1589374055840,0,0,0,0,0,0,61,64,77,60,94,0.00,14,-34.00,-32.00,-1026.00
110,1589374055845,0,0,0,0,0,0,61,64,76,60,94,0.20,15,8.00,-17.00,-916.00
111,1589374055850,0,0,0,0,0,0,62,63,75,60,94,0.34,15,40.00,10.00,-957.00
112,1589374055855,0,0,0,0,0,0,62,63,74,60,94,-0.08,15,-1.00,-45.00,-985.00
113,1589374055860,0,1,0,0,0,0,62,63,72,60,94,0.26,15,-25.00,-25.00,-1050.00
114,1589374055865,0,1,0,0,0,0,62,63,71,60,94,-0.10,15,-23.00,-27.00,-1028.00
115,1589374055870,0,1,0,0,0,0,62,63,70,60,94,0.13,15,-38.00,-62.00,-998.00
116,1589374055875,0,1,0,0,0,0,62,63,69,60,94,0.57,15,46.00,-18.00,-1017.00
117,1589374055880,0,1,0,0,0,0,62,63,69,50,94,0.41,15,12.00,-62.00,-1019.00
118,1589374055886,0,2,0,0,0,0,62,63,69,50,94,0.22,15,27.00,-24.00,-1020.00
119,1589374055891,0,2,0,0,0,0,62,63,69,50,94,0.06,15,-5.00,-71.00,-986.00
120,1589374055896,1,2,0,0,0,0,62,63,68,50,94,0.28,16,5.00,-25.00,-1027.00
121,1589374055901,0,2,0,0,0,0,62,64,68,50,94,0.18,16,27.00,-41.00,-981.00
122,1589374055906,0,2,0,0,0,0,62,64,70,50,94,0.15,16,3.00,-34.00,-1031.00
123,1589374055911,0,1,1,0,0,-1,62,64,71,50,94,0.29,16,0.00,-38.00,-986.00
124,1589374055916,0,1,1,0,0,-1,62,64,72,50,94,-0.01,16,16.00,-40.00,-1008.00
125,1589374055921,0,1,1,0,0,0,62,64,73,60,94,0.26,16,6.00,-35.00,-1034.00
126,1589374055927,0,1,1,0,0,-1,62,64,75,60,94,0.58,16,21.00,-38.00,-982.00
127,1589374055932,0,2,1,0,0,0,62,64,76,60,94,0.16,16,20.00,-55.00,-990.00
128,1589374055937,1,2,1,0,0,0,62,64,78,60,94,0.37,16,-3.00,-49.00,-997.00
129,1589374055942,1,2,1,0,0,0,62,64,80,60,94,0.50,16,7.00,-51.00,-959.00
130,1589374055947,0,2,1,0,0,0,62,64,80,60,94,0.60,17,22.00,-59.00,-967.00
131,1589374055953,0,3,1,0,0,0,62,64,79,60,94,0.55,17,5.00,-30.00,-964.00
132,1589374055958,0,2,1,0,0,0,62,64,80,60,94,0.62,17,22.00,-42.00,-1025.00
133,1589374055963,0,3,0,0,0,0,62,64,80,60,94,0.59,17,18.00,-20.00,-971.00
134,1589374055968,0,3,0,0,0,0,62,64,81,60,94,0.34,17,-8.00,-13.00,-996.00
135,1589374055973,0,2,0,0,0,0,62,64,80,60,94,0.58,17,23.00,-19.00,-964.00
136,1589374055978,0,1,0,0,0,0,62,64,80,60,94,0.88,17,36.00,-26.00,-1009.00
137,1589374055983,0,0,0,0,0,0,62,64,81,60,94,0.72,17,-9.00,-36.00,-1003.00
138,1589374055988,0,0,0,0,0,0,62,64,82,60,94,0.42,17,3.00,-1.00,-1002.00
139,1589374055994,1,1,0,0,0,0,62,64,81,60,94,0.35,17,-33.00,-20.00,-946.00
140,1589374055999,0,1,0,0,0,0,62,64,81,60,94,0.36,18,-21.00,0.00,-906.00
141,1589374056004,0,2,0,0,0,0,62,65,81,60,94,0.55,18,-11.00,18.00,-934.00
142,1589374056009,-2,0,-3,0,0,0,62,65,80,60,94,0.71,18,-42.00,-52.00,-942.00
143,1589374056014,-2,1,-7,0,1,0,62,65,79,60,94,0.45,18,-43.00,-7.00,-987.00
144,1589374056019,-2,-2,-10,0,1,1,62,65,79,60,94,0.41,18,17.00,-72.00,-1130.00
145,1589374056024,0,-2,-10,0,0,0,62,65,77,60,94,0.73,18,41.00,-8.00,-991.00
146,1589374056030,0,0,-4,0,0,0,62,65,75,60,94,0.83,18,-29.00,2.00,-1055.00
147,1589374056035,0,0,0,0,0,0,62,65,75,60,94,0.85,18,29.00,11.00,-1097.00
148,1589374056040,0,0,1,0,0,0,62,65,74,60,94,0.89,18,-36.00,-10.00,-1073.00
149,1589374056045,0,1,1,0,0,0,62,65,74,60,94,0.43,18,-24.00,-64.00,-1003.00
150,1589374056050,0,0,1,0,0,0,62,65,74,60,94,0.71,19,-79.00,-60.00,-1128.00
151,1589374056055,0,0,1,0,0,0,62,65,75,60,94,0.26,19,6.00,-50.00,-941.00
152,1589374056061,-1,1,1,0,0,0,62,65,75,60,94,0.09,19,-62.00,-64.00,-1073.00
153,1589374056066,-1,2,1,0,0,0,62,65,75,60,94,0.59,19,-9.00,-14.00,-980.00
154,1589374056071,-1,0,1,0,0,0,62,65,77,60,94,0.40,19,-19.00,2.00,-997.00
155,1589374056077,0,-1,1,0,0,0,62,65,78,60,94,0.48,19,-14.00,46.00,-1022.00
156,1589374056082,0,-1,1,0,0,0,62,65,77,60,94,0.61,19,53.00,-2.00,-974.00
157,1589374056087,-1,0,0,0,-1,0,62,65,77,60,94,0.53,19,8.00,-31.00,-991.00
158,1589374056093,0,1,1,0,-1,0,62,65,78,60,94,0.44,19,47.00,13.00,-963.00
159,1589374056098,0,1,1,0,0,0,62,65,79,60,94,0.34,19,-17.00,-46.00,-1070.00
160,1589374056103,0,1,1,0,0,0,62,65,80,60,94,0.19,20,-16.00,-37.00,-1079.00
161,1589374056108,0,2,2,0,-1,0,63,65,81,60,94,0.64,20,-15.00,-30.00,-953.00
162,1589374056113,-1,2,1,0,0,0,63,65,80,60,94,0.22,20,11.00,-18.00,-965.00
163,1589374056118,-1,2,1,0,0,0,63,65,81,60,94,-0.17,20,-10.00,-22.00,-978.00
164,1589374056123,0,1,1,0,0,0,63,65,82,60,94,0.07,20,-46.00,-21.00,-1025.00
165,1589374056129,-1,1,1,0,0,0,63,65,82,60,94,0.78,20,8.00,-7.00,-968.00
166,1589374056134,-1,1,0,0,0,0,63,65,82,60,94,0.75,20,-14.00,-37.00,-1012.00
167,1589374056139,0,2,0,0,0,0,63,65,82,60,94,0.20,20,-14.00,-13.00,-1081.00
168,1589374056144,-2,0,0,0,0,0,63,65,82,60,94,0.04,20,-35.00,-93.00,-965.00
169,1589374056149,-2,3,1,0,-1,0,63,65,82,60,94,-0.08,21,-36.00,-44.00,-986.00
170,1589374056155,-3,3,1,0,-1,0,63,65,82,60,94,0.26,21,-30.00,-52.00,-1031.00
171,1589374056160,-3,4,1,0,0,0,64,65,82,60,94,0.27,21,-42.00,-32.00,-952.00
172,1589374056165,-2,3,1,0,0,0,64,65,81,60,94,0.56,21,-11.00,-60.00,-1020.00
173,1589374056170,-2,4,1,0,0,0,64,65,81,60,94,0.13,21,-13.00,-40.00,-967.00
174,1589374056175,-2,3,1,0,0,0,64,65,80,60,94,0.03,21,-31.00,-18.00,-1070.00
175,1589374056180,-2,1,1,0,0,0,64,65,80,60,94,0.18,21,-55.00,-3.00,-963.00
176,1589374056185,-2,0,0,0,0,0,64,65,81,60,94,0.27,21,-53.00,-31.00,-1007.00
177,1589374056191,-2,0,0,0,0,0,64,65,81,60,94,0.35,21,-26.00,-30.00,-991.00
178,1589374056196,-2,0,0,0,0,0,64,65,81,60,94,0.27,21,-41.00,-31.00,-966.00
179,1589374056201,-1,0,0,0,0,0,64,65,81,60,94,0.37,22,-9.00,-4.00,-1002.00
180,1589374056206,-2,0,0,0,0,0,64,65,82,60,94,0.44,22,-36.00,-21.00,-958.00
181,1589374056211,-2,0,1,0,0,0,63,66,81,60,94,0.62,22,-48.00,-21.00,-1044.00
182,1589374056216,-2,0,1,0,0,0,63,66,81,60,94,0.65,22,-25.00,-43.00,-1038.00
183,1589374056222,-2,0,0,0,0,0,63,66,81,60,94,0.48,22,0.00,-65.00,-943.00
184,1589374056227,0,0,0,0,0,0,63,66,80,60,94,0.62,22,49.00,-13.00,-987.00
185,1589374056232,0,1,0,0,0,0,63,66,79,60,94,0.79,22,53.00,-47.00,-911.00
186,1589374056237,-1,2,1,0,-1,0,63,66,79,60,94,0.32,22,-15.00,-44.00,-998.00
187,1589374056242,-1,3,1,0,-1,0,63,66,79,60,94,0.59,22,0.00,-51.00,-968.00
188,1589374056247,-1,3,1,0,0,0,63,66,79,60,94,0.56,22,-14.00,-60.00,-972.00
189,1589374056253,-1,3,1,0,0,0,63,66,79,60,94,0.50,23,-16.00,-40.00,-988.00
190,1589374056258,0,4,1,0,0,0,63,66,80,60,94,-0.04,23,-27.00,-17.00,-958.00
191,1589374056263,-1,3,1,0,0,0,64,66,80,60,94,0.18,23,-27.00,-22.00,-1039.00
192,1589374056268,-2,1,1,0,0,0,64,66,81,60,94,0.22,23,-5.00,5.00,-981.00
193,1589374056273,-1,0,1,0,0,0,64,66,81,60,94,0.23,23,-24.00,-42.00,-974.00
194,1589374056278,0,0,1,0,0,0,64,66,81,60,94,0.36,23,4.00,-41.00,-965.00
195,1589374056284,1,2,1,0,0,0,64,66,82,60,94,0.05,23,-51.00,3.00,-973.00
196,1589374056289,0,1,0,0,0,0,64,66,80,60,94,0.61,23,-21.00,-2.00,-922.00
197,1589374056294,-2,-1,1,0,0,0,64,66,81,60,94,0.31,23,-42.00,-25.00,-1050.00
198,1589374056299,-1,0,1,0,0,0,64,66,81,60,94,0.14,23,-50.00,-29.00,-999.00
199,1589374056304,-2,0,0,0,0,0,64,66,80,60,94,0.74,24,-7.00,-47.00,-979.00
200,1589374056309,-1,1,0,0,0,0,64,66,79,60,94,0.65,24,4.00,9.00,-991.00
201,1589374056315,0,1,0,0,0,0,64,66,78,60,94,0.27,24,15.00,5.00,-950.00
202,1589374056320,0,0,0,0,0,0,64,66,78,60,94,0.49,24,10.00,-7.00,-969.00
203,1589374056325,0,0,0,0,0,0,64,66,78,60,94,0.57,24,4.00,4.00,-988.00
204,1589374056331,0,-1,-1,0,0,0,64,66,79,60,94,0.37,24,-3.00,-9.00,-1005.00
205,1589374056336,0,-2,-2,0,0,0,64,66,80,60,94,0.23,24,23.00,-57.00,-977.00
206,1589374056342,0,0,0,0,-1,0,64,66,78,60,94,0.60,24,-30.00,-40.00,-1009.00
207,1589374056347,0,2,1,0,0,0,64,66,76,60,94,0.71,24,12.00,-3.00,-1061.00
208,1589374056352,0,2,1,0,0,0,64,66,77,60,94,0.73,24,-23.00,-15.00,-1065.00
209,1589374056357,0,1,1,0,0,0,64,66,77,60,94,0.73,25,-5.00,-48.00,-1050.00
210,1589374056363,-1,1,1,0,0,0,64,66,77,60,94,0.46,25,-11.00,-43.00,-1002.00
211,1589374056368,-1,1,1,0,0,0,65,67,78,60,94,0.49,25,-5.00,-50.00,-997.00
212,1589374056373,0,2,2,0,0,0,65,67,79,60,94,0.06,25,-27.00,7.00,-1020.00
213,1589374056378,-1,2,1,0,0,0,65,67,80,60,94,0.47,25,-42.00,6.00,-995.00
214,1589374056384,-2,0,1,0,0,0,65,67,82,60,94,0.37,25,-43.00,-6.00,-946.00
215,1589374056389,-3,0,1,0,0,0,65,67,82,60,94,0.65,25,6.00,-2.00,-983.00
216,1589374056394,-2,0,0,0,0,0,65,67,82,60,94,0.54,25,8.00,8.00,-988.00
217,1589374056399,-1,0,1,0,0,0,65,67,82,60,94,0.62,25,-11.00,0.00,-986.00
218,1589374056404,0,-1,1,0,0,0,65,67,82,60,94,0.43,25,-29.00,12.00,-1061.00
219,1589374056409,-1,-1,1,0,0,0,65,67,82,60,94,0.77,26,-16.00,4.00,-972.00
220,1589374056415,-1,0,1,0,0,0,65,67,82,60,94,0.54,26,-25.00,5.00,-1002.00
221,1589374056420,-1,0,1,0,0,0,65,67,82,60,94,0.38,26,-25.00,13.00,-977.00
222,1589374056425,-1,0,1,0,0,0,65,67,82,60,94,0.44,26,-8.00,15.00,-966.00
223,1589374056430,-1,-1,1,0,0,0,65,67,83,60,94,0.42,26,-3.00,3.00,-1020.00
224,1589374056435,-1,-1,1,0,0,0,65,67,82,60,94,0.56,26,-27.00,3.00,-1024.00
225,1589374056441,-1,0,1,0,0,0,65,67,82,60,94,0.65,26,-53.00,3.00,-991.00
226,1589374056446,-2,0,0,0,0,0,65,67,82,60,94,0.11,26,-22.00,-14.00,-1015.00
227,1589374056451,-2,0,0,0,0,0,65,67,83,60,94,0.37,26,-24.00,0.00,-963.00
228,1589374056456,-2,0,0,0,0,0,65,67,82,60,94,0.41,26,-42.00,0.00,-1009.00
229,1589374056461,-1,0,0,0,0,0,65,67,82,60,94,0.56,27,-31.00,-34.00,-993.00
230,1589374056467,0,0,0,0,0,0,65,67,81,60,94,0.30,27,-46.00,-5.00,-1008.00
231,1589374056472,0,0,0,0,0,1,65,67,80,60,94,0.73,27,-22.00,-15.00,-999.00
232,1589374056477,-1,1,0,0,0,0,65,67,79,60,94,-0.08,27,-24.00,9.00,-1030.00
233,1589374056482,-2,2,0,0,0,0,65,67,80,60,94,0.32,27,-56.00,-11.00,-1018.00
234,1589374056487,-2,1,0,0,0,0,65,67,80,60,94,0.07,27,-40.00,-14.00,-1101.00
235,1589374056492,-2,0,0,0,0,0,65,67,81,60,94,0.55,27,-60.00,-1.00,-971.00
236,1589374056498,-4,0,0,0,0,0,65,67,81,60,94,0.91,27,-60.00,5.00,-1042.00
237,1589374056503,-4,0,0,0,0,0,65,67,81,60,94,0.53,27,-26.00,-34.00,-920.00
238,1589374056508,-3,0,0,0,0,0,65,67,80,60,94,0.51,27,-27.00,9.00,-956.00
239,1589374056513,-3,1,0,0,0,0,65,67,79,60,94,-0.00,28,-27.00,-21.00,-963.00
240,1589374056519,-3,0,0,0,0,0,65,67,79,60,94,0.27,28,-49.00,-27.00,-970.00
241,1589374056524,-3,0,0,0,0,0,65,67,78,60,94,0.96,28,-20.00,-26.00,-993.00
242,1589374056529,-2,2,0,0,-1,0,65,67,78,60,94,0.40,28,6.00,-7.00,-1007.00
243,1589374056534,-2,2,0,0,0,0,65,67,77,60,94,0.29,28,-23.00,-79.00,-994.00
244,1589374056539,-1,2,0,0,-1,0,65,67,76,60,94,0.06,28,-43.00,-83.00,-1014.00
245,1589374056545,-1,3,0,0,-1,0,65,67,75,60,94,-0.18,28,-57.00,-82.00,-985.00
246,1589374056550,-2,4,1,0,-1,0,65,67,75,60,94,0.19,28,-24.00,-23.00,-996.00
247,1589374056555,-3,5,1,0,0,0,65,67,76,60,94,-0.34,28,-87.00,-12.00,-1114.00
248,1589374056560,-2,3,0,0,0,0,65,67,76,60,94,0.25,28,-19.00,-22.00,-930.00
249,1589374056566,-2,1,0,0,0,0,65,67,77,60,94,0.16,29,-46.00,-36.00,-986.00
250,1589374056571,-4,2,0,0,0,0,65,67,77,60,94,0.42,29,-53.00,3.00,-885.00
251,1589374056576,-4,1,0,0,0,0,65,67,77,60,94,0.24,29,-88.00,-3.00,-1030.00
252,1589374056581,-4,0,0,0,0,0,65,67,78,60,94,0.30,29,-87.00,-19.00,-1021.00
253,1589374056586,-5,0,0,0,0,0,65,67,77,60,94,-0.01,29,-64.00,-55.00,-986.00
254,1589374056592,-5,-1,0,0,0,0,65,67,77,60,94,0.33,29,-19.00,-42.00,-963.00
255,1589374056597,-4,1,0,0,0,0,65,67,77,60,94,0.33,29,-33.00,15.00,-977.00
256,1589374056602,-3,1,0,0,0,0,65,67,77,60,94,0.38,29,-17.00,10.00,-1007.00
257,1589374056607,-2,1,0,0,0,0,65,67,76,60,94,0.25,29,3.00,-16.00,-917.00
258,1589374056613,-2,0,0,1,0,0,65,67,76,60,94,0.70,29,15.00,-159.00,-1000.00
259,1589374056618,0,-1,-2,1,0,0,65,67,77,60,94,0.40,30,31.00,-104.00,-1078.00
260,1589374056623,1,0,-3,1,-1,0,65,67,76,60,94,0.38,30,50.00,-18.00,-937.00
261,1589374056628,1,3,0,1,-1,0,65,67,75,60,94,0.18,30,-76.00,-75.00,-1067.00
262,1589374056634,0,4,1,1,-1,0,65,67,73,60,94,0.20,30,-18.00,-68.00,-1153.00
263,1589374056639,0,4,1,1,-1,0,65,67,74,60,94,0.03,30,-22.00,-68.00,-1005.00
264,1589374056644,0,4,1,0,0,-1,65,67,75,60,94,0.60,30,-28.00,-76.00,-993.00
265,1589374056651,0,4,1,0,0,0,65,67,76,60,94,0.62,30,-15.00,-76.00,-968.00
266,1589374056656,-1,5,1,0,0,0,65,67,77,60,94,0.58,30,-51.00,-25.00,-954.00
267,1589374056662,-2,4,1,0,0,0,65,67,78,60,94,0.28,30,-49.00,-24.00,-968.00
268,1589374056667,-2,2,1,0,0,0,65,67,78,60,94,0.69,30,-15.00,-67.00,-984.00
269,1589374056673,-2,0,1,0,0,0,65,67,79,60,94,0.75,31,16.00,-73.00,-980.00
270,1589374056678,-1,2,1,0,0,0,65,67,78,60,94,-0.03,31,-36.00,-46.00,-988.00
271,1589374056683,0,2,1,0,0,0,66,68,79,60,94,0.19,31,-53.00,-44.00,-972.00
272,1589374056689,-1,4,1,0,0,0,66,68,79,60,94,0.20,31,-72.00,-36.00,-935.00
273,1589374056694,-2,3,1,0,0,0,66,68,79,60,94,0.04,31,-18.00,-51.00,-987.00
274,1589374056699,-3,2,1,0,0,0,66,68,79,60,94,0.50,31,-39.00,-13.00,-969.00
275,1589374056704,-3,0,1,0,0,0,66,68,79,60,94,0.23,31,-5.00,-59.00,-1091.00
276,1589374056709,-2,1,1,0,0,0,66,68,78,60,94,0.58,31,1.00,-48.00,-952.00
277,1589374056715,-1,2,0,0,0,0,66,68,78,60,94,0.43,31,-18.00,-66.00,-961.00
278,1589374056720,0,2,0,0,0,0,66,68,78,60,94,0.40,31,38.00,-41.00,-973.00
279,1589374056725,0,2,0,0,0,0,66,68,78,60,94,0.83,32,22.00,-87.00,-981.00
280,1589374056730,0,3,0,1,0,0,66,68,77,60,94,0.41,32,26.00,-59.00,-1033.00
281,1589374056736,0,4,0,1,0,0,66,68,76,60,94,0.68,32,12.00,-58.00,-992.00
282,1589374056741,0,4,0,1,0,0,66,68,75,60,94,0.38,32,14.00,-80.00,-980.00
283,1589374056746,0,4,0,1,0,0,66,68,74,60,94,0.80,32,55.00,-64.00,-957.00
284,1589374056752,1,3,0,1,0,0,66,68,75,60,94,0.51,32,59.00,-40.00,-1095.00
285,1589374056757,2,2,1,1,0,0,66,68,74,60,94,0.45,32,9.00,-66.00,-1043.00
286,1589374056762,2,4,1,0,0,0,66,68,74,60,94,0.10,32,13.00,-13.00,-986.00
287,1589374056767,1,4,1,0,0,0,66,68,75,60,94,0.39,32,-19.00,-7.00,-1047.00
288,1589374056773,1,2,1,0,0,0,66,68,75,60,94,0.14,32,1.00,-26.00,-1029.00
289,1589374056778,1,1,1,0,0,0,66,68,75,60,94,0.42,33,12.00,-35.00,-948.00
290,1589374056783,0,1,1,0,0,0,66,68,75,60,94,0.45,33,24.00,-40.00,-984.00
291,1589374056789,0,1,1,0,0,0,66,68,75,60,94,0.50,33,6.00,-17.00,-1017.00
292,1589374056794,0,1,1,0,0,0,66,68,76,60,94,0.54,33,-6.00,-10.00,-1040.00
293,1589374056800,0,0,1,0,0,0,66,68,76,60,94,0.58,33,6.00,-56.00,-992.00
294,1589374056805,0,0,1,0,0,0,66,68,77,60,94,0.38,33,-43.00,-35.00,-1021.00
295,1589374056811,0,3,1,0,0,0,66,68,77,60,94,0.55,33,-85.00,-29.00,-962.00
296,1589374056816,-1,0,0,-1,0,0,66,68,78,60,94,-0.35,33,-100.00,-62.00,-1082.00
297,1589374056821,-3,0,0,-2,0,0,66,68,79,60,94,0.04,33,-67.00,-23.00,-1023.00
298,1589374056826,-5,0,0,-1,0,0,66,68,78,60,94,-0.03,33,9.00,4.00,-835.00
299,1589374056832,-5,1,0,-1,0,0,66,68,79,60,94,-0.10,34,-67.00,-52.00,-991.00
300,1589374056837,-5,1,0,-1,0,0,66,68,79,60,94,0.51,34,-64.00,-4.00,-945.00
301,1589374056842,-5,1,0,-1,0,0,66,69,79,60,94,0.20,34,-21.00,15.00,-942.00
302,1589374056848,-5,0,0,0,0,0,66,69,80,60,94,0.71,34,-49.00,7.00,-1099.00
303,1589374056853,-5,0,0,0,0,0,66,69,81,60,94,0.64,34,-38.00,-1.00,-904.00
304,1589374056858,-3,0,0,0,0,0,66,69,82,60,94,0.31,34,-73.00,-23.00,-1044.00
305,1589374056864,-2,-1,0,0,0,0,66,69,83,60,94,-0.14,34,-30.00,6.00,-987.00
306,1589374056869,-3,0,0,0,0,0,66,69,82,60,94,0.54,34,4.00,35.00,-942.00
307,1589374056874,-4,1,0,0,0,0,66,69,83,60,94,0.20,34,-101.00,6.00,-1069.00
308,1589374056879,-4,0,0,0,0,0,66,69,85,60,94,0.09,34,-17.00,15.00,-974.00
309,1589374056884,-4,-1,0,0,0,0,66,69,85,60,94,0.31,35,-6.00,-49.00,-877.00
310,1589374056890,-3,-1,0,0,0,0,66,69,83,60,94,0.29,35,-15.00,-19.00,-1048.00
311,1589374056895,-2,0,0,0,0,0,67,69,82,60,94,-0.13,35,-34.00,-26.00,-1058.00
312,1589374056900,-2,1,0,0,0,0,67,69,82,60,94,0.07,35,-59.00,-53.00,-1064.00
313,1589374056905,-2,0,0,0,0,0,67,69,81,60,94,0.16,35,-59.00,-85.00,-951.00
314,1589374056911,-2,2,0,0,0,0,67,69,80,60,94,0.26,35,-89.00,-15.00,-1070.00
315,1589374056916,-3,3,0,0,0,0,67,69,80,60,94,-0.32,35,-50.00,-37.00,-1063.00
316,1589374056921,-3,3,0,0,0,0,67,69,81,60,94,0.37,35,-55.00,-18.00,-1014.00
317,1589374056927,-4,2,1,0,0,0,67,69,81,60,94,0.05,35,-49.00,-28.00,-976.00
318,1589374056932,-4,0,1,0,0,0,67,69,82,60,94,0.38,35,-38.00,-38.00,-1016.00
319,1589374056938,-3,1,1,0,0,0,67,69,83,60,94,0.14,36,-45.00,-33.00,-979.00
320,1589374056943,-3,1,1,0,0,0,67,69,84,60,94,0.40,36,-35.00,-21.00,-970.00
321,1589374056949,-2,2,1,0,0,0,67,69,85,60,94,0.06,36,-28.00,-34.00,-1004.00
322,1589374056954,-3,1,1,0,0,0,67,69,86,60,94,0.33,36,-49.00,-28.00,-1009.00
323,1589374056959,-2,0,1,0,0,0,67,69,86,60,94,0.68,36,-26.00,-38.00,-963.00
324,1589374056965,-1,1,0,1,0,0,67,69,86,60,94,0.37,36,-26.00,-32.00,-969.00
325,1589374056970,-1,1,0,1,0,0,67,69,86,60,94,0.07,36,-9.00,-25.00,-960.00
326,1589374056975,-1,3,0,0,0,0,67,69,86,60,94,0.19,36,1.00,-27.00,-904.00
327,1589374056981,-2,2,0,0,0,0,67,69,86,60,94,0.22,36,-16.00,11.00,-916.00
328,1589374056986,-2,1,0,0,0,0,67,69,85,60,94,0.15,36,-20.00,-10.00,-942.00
329,1589374056991,-2,1,0,0,0,0,67,69,84,60,94,0.25,37,-11.00,-7.00,-996.00
330,1589374056996,-2,1,0,1,0,0,67,69,84,60,94,0.64,37,-1.00,-4.00,-1034.00
331,1589374057002,0,0,0,1,0,0,67,69,84,60,94,0.20,37,-41.00,-25.00,-1084.00
332,1589374057007,0,1,0,0,0,0,67,69,84,60,94,0.61,37,-15.00,-23.00,-1013.00
333,1589374057012,0,2,1,0,0,0,67,69,83,60,94,0.63,37,-20.00,-6.00,-1044.00
334,1589374057018,-1,1,1,0,0,0,67,69,84,60,94,0.62,37,16.00,-12.00,-951.00
335,1589374057023,-1,1,0,0,0,0,67,69,83,60,94,0.54,37,-7.00,-16.00,-967.00
336,1589374057029,-1,1,0,0,0,0,67,69,84,60,94,0.31,37,-28.00,-20.00,-960.00
337,1589374057034,0,0,0,0,0,0,67,69,84,60,94,0.21,37,8.00,-7.00,-980.00
338,1589374057039,0,0,1,0,0,0,67,69,84,60,94,0.67,38,-28.00,-9.00,-1018.00
339,1589374057044,0,0,1,0,0,0,67,69,85,60,94,0.20,38,-25.00,-30.00,-1048.00
340,1589374057050,0,0,1,0,0,0,67,69,84,60,94,0.18,38,0.00,-19.00,-999.00
341,1589374057055,0,0,0,0,0,0,67,70,85,60,94,0.26,38,-25.00,0.00,-1036.00
342,1589374057060,0,0,0,0,0,0,67,70,85,60,94,0.20,38,-6.00,-6.00,-956.00
343,1589374057065,-1,0,0,0,0,0,67,70,85,60,94,0.29,38,-21.00,3.00,-961.00
344,1589374057071,0,0,0,0,0,0,67,70,84,60,94,0.22,38,-38.00,3.00,-1007.00
345,1589374057076,-1,-1,0,0,0,0,67,70,85,60,94,0.15,38,-30.00,-12.00,-1058.00
346,1589374057081,-2,0,0,0,0,0,67,70,84,60,94,0.31,38,-43.00,23.00,-1059.00
347,1589374057086,-2,0,0,0,0,0,67,70,84,60,94,0.56,38,-3.00,26.00,-1027.00
348,1589374057092,-1,-1,0,0,0,0,67,70,83,60,94,0.68,39,-19.00,-1.00,-972.00
349,1589374057097,-1,-1,0,0,0,0,67,70,83,60,94,0.38,39,-3.00,-41.00,-908.00
350,1589374057102,-1,-1,0,0,0,1,67,70,82,60,94,0.42,39,-9.00,-17.00,-1123.00
351,1589374057108,0,0,0,0,0,0,67,69,81,60,94,0.41,39,-15.00,-32.00,-1027.00
352,1589374057113,0,0,0,0,-1,0,67,69,79,60,93,0.60,39,45.00,-18.00,-970.00
353,1589374057118,0,2,0,0,-1,0,67,69,78,60,93,0.55,39,-62.00,-83.00,-1028.00
354,1589374057123,0,4,0,0,-1,0,67,69,76,60,93,0.37,39,54.00,-55.00,-1073.00
355,1589374057129,0,4,0,1,-1,0,67,69,76,60,93,0.75,39,28.00,-47.00,-1065.00
356,1589374057134,0,4,0,1,0,0,67,69,76,60,93,0.53,39,28.00,-21.00,-1037.00
357,1589374057139,1,3,0,1,0,0,67,69,77,60,93,0.29,39,59.00,-10.00,-971.00
358,1589374057145,1,3,0,0,0,0,67,69,78,60,93,0.37,40,20.00,35.00,-927.00
359,1589374057150,1,0,0,0,0,0,67,69,79,60,93,0.66,40,16.00,13.00,-966.00
360,1589374057155,1,0,0,0,0,0,67,69,80,60,93,0.54,40,-42.00,-23.00,-1088.00
361,1589374057161,0,0,0,0,0,0,67,70,81,60,93,0.40,40,-9.00,-31.00,-1056.00
362,1589374057166,1,-1,0,0,0,0,67,70,82,60,93,0.48,40,-28.00,-24.00,-980.00
363,1589374057171,0,0,0,0,0,0,67,70,81,60,93,0.65,40,-48.00,-14.00,-1056.00
364,1589374057176,0,0,0,0,0,0,67,70,80,60,93,0.32,40,28.00,10.00,-924.00
365,1589374057182,0,0,0,0,0,0,67,70,81,60,93,0.86,40,-20.00,-4.00,-1065.00
366,1589374057187,0,0,0,0,0,0,67,70,81,60,93,0.83,40,69.00,3.00,-857.00
367,1589374057192,0,0,0,0,0,0,67,70,81,60,93,0.46,40,65.00,-3.00,-924.00
368,1589374057197,0,-1,0,0,0,0,67,70,81,60,93,0.65,41,-6.00,15.00,-1067.00
369,1589374057203,0,-2,1,0,0,0,67,70,81,60,93,0.34,41,-33.00,4.00,-1077.00
370,1589374057208,0,-2,1,0,0,0,67,70,81,60,93,0.38,41,30.00,-13.00,-1038.00
371,1589374057213,0,0,0,0,0,0,67,70,80,60,93,0.77,41,32.00,0.00,-1014.00
372,1589374057219,0,0,0,0,0,0,67,70,80,60,93,0.81,41,28.00,-6.00,-926.00
373,1589374057224,0,0,0,0,0,0,67,70,80,60,93,0.53,41,-1.00,11.00,-962.00
374,1589374057229,0,0,0,0,0,0,67,70,79,60,93,0.76,41,-59.00,-55.00,-994.00
375,1589374057234,-1,0,0,-1,0,0,67,70,79,60,93,0.62,41,-14.00,-8.00,-1027.00
376,1589374057240,-2,0,0,0,-1,0,67,70,78,60,93,0.38,41,13.00,-5.00,-942.00
377,1589374057246,-1,2,0,0,-1,0,67,70,76,60,93,0.73,41,-48.00,-70.00,-967.00
378,1589374057251,-2,2,0,0,-1,0,67,70,75,60,93,0.66,42,-7.00,-66.00,-1071.00
379,1589374057256,-3,3,0,0,-1,0,67,70,75,60,93,1.07,42,-10.00,-75.00,-1076.00
380,1589374057262,-2,2,0,0,0,0,67,70,73,60,93,0.36,42,19.00,-49.00,-1064.00
381,1589374057267,0,1,-2,0,-1,0,67,71,73,50,93,0.52,42,-31.00,-107.00,-1040.00
382,1589374057272,0,2,0,0,-1,0,67,71,72,50,93,0.32,42,29.00,-64.00,-1032.00
383,1589374057278,-2,4,1,0,-1,0,67,71,73,50,93,0.25,42,-50.00,-19.00,-1063.00
384,1589374057283,-2,4,2,0,0,-1,67,71,74,60,93,0.17,42,-59.00,-10.00,-1006.00
385,1589374057288,-2,2,1,0,0,-1,67,71,75,60,93,0.68,42,-71.00,-22.00,-980.00
386,1589374057294,-2,0,1,0,0,-1,67,71,77,60,93,0.39,42,-20.00,-41.00,-968.00
387,1589374057299,-3,1,0,0,0,0,67,71,78,60,93,0.75,42,-40.00,-48.00,-917.00
388,1589374057304,-2,0,0,0,0,0,67,71,78,60,93,0.34,43,-104.00,-109.00,-942.00
389,1589374057309,-4,3,1,0,0,0,67,71,77,60,93,0.47,43,-50.00,-40.00,-946.00
390,1589374057315,-4,4,0,0,0,0,67,71,77,60,93,0.44,43,-69.00,-8.00,-1015.00
391,1589374057320,-3,2,0,0,0,0,68,70,76,60,93,0.48,43,-56.00,-19.00,-987.00
392,1589374057325,-4,1,0,0,0,0,68,70,75,60,93,0.60,43,-79.00,-42.00,-1008.00
393,1589374057331,-4,2,0,0,0,1,68,70,74,60,93,0.69,43,-55.00,-205.00,-1069.00
394,1589374057336,-1,2,0,0,0,1,68,70,72,60,93,0.65,43,55.00,-23.00,-926.00
395,1589374057341,-1,3,1,0,0,0,68,70,71,50,93,0.34,43,25.00,-65.00,-974.00
396,1589374057347,-3,4,1,0,0,0,68,70,73,50,93,0.45,43,-17.00,-72.00,-1118.00
397,1589374057352,-3,4,1,0,0,0,68,70,73,50,93,0.37,43,-41.00,-33.00,-1008.00
398,1589374057357,-2,2,0,0,0,0,68,70,73,50,93,0.36,44,-4.00,6.00,-1062.00
399,1589374057363,-1,0,1,0,0,0,68,70,74,60,93,0.43,44,-60.00,-54.00,-1115.00
400,1589374057369,-3,1,1,0,0,0,68,70,75,60,93,0.42,44,-56.00,-107.00,-925.00
401,1589374057374,-3,3,1,0,0,0,68,71,76,60,92,0.44,44,-29.00,-39.00,-1006.00
402,1589374057380,-3,4,1,0,0,0,68,71,78,60,92,0.22,44,-30.00,-14.00,-979.00
403,1589374057385,-3,4,0,0,0,0,68,71,78,60,92,0.12,44,-37.00,-31.00,-974.00
404,1589374057391,-3,1,0,0,0,0,68,71,79,60,92,0.77,44,-72.00,-86.00,-980.00
405,1589374057396,-2,0,0,0,0,0,68,71,79,60,92,0.61,44,-38.00,-57.00,-1048.00
406,1589374057401,-2,1,0,0,0,0,68,71,79,60,92,0.63,44,-63.00,-69.00,-1011.00
407,1589374057407,-3,3,1,0,0,0,68,71,80,60,92,0.51,44,-21.00,-16.00,-994.00
408,1589374057412,-3,3,0,0,0,0,68,71,80,60,92,0.88,45,-21.00,-55.00,-930.00
409,1589374057417,-3,2,0,0,0,0,68,71,79,60,92,0.44,45,-13.00,-71.00,-1004.00
410,1589374057423,-2,2,0,1,0,0,68,71,79,60,92,0.57,45,-63.00,-77.00,-1010.00
411,1589374057428,-1,1,1,1,0,0,68,71,78,60,92,0.38,45,-37.00,-52.00,-1096.00
412,1589374057433,-2,2,1,0,0,0,68,71,79,60,92,0.40,45,-44.00,-62.00,-960.00
413,1589374057438,-2,3,1,0,0,0,68,71,79,60,92,0.32,45,-67.00,-39.00,-944.00
414,1589374057444,-2,3,1,0,0,0,68,71,79,60,92,0.51,45,-77.00,-31.00,-994.00
415,1589374057449,-2,2,1,0,0,0,68,71,80,60,92,0.14,45,-86.00,-31.00,-952.00
416,1589374057454,-3,1,1,0,0,0,68,71,81,60,92,0.14,45,-60.00,-15.00,-1013.00
417,1589374057460,-4,2,0,0,0,0,68,71,81,60,92,0.84,45,-53.00,-24.00,-957.00
418,1589374057465,-4,1,0,0,0,0,68,71,81,60,92,0.39,46,-42.00,-33.00,-917.00
419,1589374057470,-4,0,0,0,0,0,68,71,81,60,92,0.51,46,-73.00,-50.00,-1059.00
420,1589374057475,-3,0,0,0,0,0,68,71,80,60,92,0.02,46,-8.00,-72.00,-1006.00
421,1589374057481,-3,1,0,0,0,0,68,71,79,60,92,-0.05,46,-55.00,-34.00,-1071.00
422,1589374057486,-3,2,0,0,0,0,68,71,79,60,92,0.07,46,-32.00,-40.00,-972.00
423,1589374057491,-2,1,0,0,0,0,68,71,79,60,92,0.28,46,-59.00,-56.00,-1045.00
424,1589374057497,-3,2,0,0,0,0,68,71,79,60,92,0.22,46,14.00,-47.00,-959.00
425,1589374057502,-2,2,0,1,0,0,68,71,79,60,92,0.47,46,-37.00,-46.00,-1006.00
426,1589374057507,-1,2,0,1,0,0,68,71,79,60,92,0.48,46,-29.00,-24.00,-973.00
427,1589374057513,-1,2,1,1,0,0,68,71,79,60,92,0.29,46,-40.00,-27.00,-1085.00
428,1589374057518,-1,2,1,0,0,0,68,71,79,60,92,0.46,47,-49.00,-20.00,-989.00
429,1589374057524,-1,2,1,0,0,0,68,71,80,60,92,0.51,47,-19.00,-17.00,-1017.00
430,1589374057529,-2,1,1,0,0,0,68,71,80,60,92,0.26,47,-20.00,-20.00,-972.00
431,1589374057535,-2,1,1,0,0,0,70,71,80,60,92,0.32,47,-6.00,-7.00,-1011.00
432,1589374057540,-1,0,0,0,0,0,70,71,80,60,92,0.31,47,-21.00,-18.00,-982.00
433,1589374057546,-1,0,0,0,0,0,70,71,79,60,92,0.82,47,0.00,-1.00,-971.00
434,1589374057551,-1,0,0,0,0,0,70,71,79,60,92,0.63,47,-25.00,-27.00,-975.00
435,1589374057557,0,0,0,0,0,0,70,71,78,60,92,0.19,47,-93.00,-57.00,-1117.00
436,1589374057562,0,1,1,0,0,0,70,71,77,60,92,0.37,47,-57.00,-28.00,-1002.00
437,1589374057568,-2,1,1,0,0,0,70,71,76,60,92,0.44,47,-60.00,-43.00,-1074.00
438,1589374057573,-2,1,1,0,0,0,70,71,77,60,92,-0.07,48,-67.00,5.00,-1088.00
439,1589374057578,-3,1,1,0,0,0,70,71,78,60,92,0.08,48,-74.00,-16.00,-1027.00
440,1589374057584,-3,0,0,0,0,0,70,71,79,60,92,0.31,48,-42.00,-26.00,-1002.00
441,1589374057589,-3,0,0,0,0,0,69,71,79,60,92,0.58,48,-34.00,-11.00,-888.00
442,1589374057594,-3,0,0,0,0,0,69,71,79,60,92,0.27,48,-48.00,-14.00,-966.00
443,1589374057600,-3,0,1,0,0,0,69,71,79,60,92,0.59,48,-36.00,22.00,-984.00
444,1589374057605,-3,0,1,0,0,0,69,71,79,60,92,0.46,48,-39.00,5.00,-1014.00
445,1589374057610,-2,0,1,0,0,0,69,71,80,60,92,0.56,48,-20.00,-11.00,-1009.00
446,1589374057616,-3,-1,1,0,0,0,69,71,80,60,92,0.48,48,-9.00,-11.00,-1007.00
447,1589374057621,-2,0,1,0,0,0,69,71,79,60,92,0.60,48,0.00,-2.00,-973.00
448,1589374057626,0,0,1,0,0,0,69,71,80,60,92,0.29,49,-35.00,-14.00,-977.00
449,1589374057631,0,0,0,0,0,0,69,71,80,60,92,0.47,49,-2.00,-32.00,-938.00
450,1589374057637,0,0,0,0,0,0,69,71,79,60,92,0.42,49,-42.00,-31.00,-955.00
451,1589374057642,-1,0,0,0,0,0,69,71,80,60,92,0.80,49,-24.00,2.00,-976.00
452,1589374057647,-2,0,0,0,0,0,69,71,79,60,92,0.57,49,-16.00,-19.00,-1021.00
453,1589374057653,-2,0,0,0,0,0,69,71,80,60,92,0.03,49,-40.00,-26.00,-1025.00
454,1589374057658,-2,0,0,0,0,0,69,71,80,60,92,0.52,49,-36.00,-34.00,-1008.00
455,1589374057663,-1,0,0,0,0,0,69,71,78,60,92,0.63,49,-37.00,1.00,-959.00
456,1589374057669,-2,2,0,0,0,0,69,71,78,60,92,0.44,49,-35.00,-41.00,-940.00
457,1589374057674,-1,0,0,0,0,0,69,71,76,60,92,0.59,49,-8.00,-18.00,-1023.00
458,1589374057679,-1,1,0,0,0,0,69,71,76,60,92,0.39,50,-56.00,-57.00,-1141.00
459,1589374057685,-2,0,0,0,0,0,69,71,75,60,92,0.51,50,-29.00,-44.00,-1051.00
460,1589374057690,-1,0,0,0,0,0,69,71,74,60,92,0.50,50,-23.00,-65.00,-1077.00
461,1589374057695,-2,2,0,0,-1,0,68,72,74,60,92,-0.10,50,4.00,-32.00,-1013.00
462,1589374057701,-2,3,0,0,-1,0,68,72,76,60,92,0.59,50,-30.00,-54.00,-1014.00
463,1589374057706,-3,4,0,0,0,0,68,72,77,60,92,0.21,50,-23.00,-27.00,-1029.00
464,1589374057711,-2,3,1,0,0,0,68,72,76,60,92,0.38,50,-46.00,-23.00,-972.00
465,1589374057717,-2,2,1,0,0,0,68,72,78,60,92,0.58,50,-19.00,-38.00,-958.00
466,1589374057722,-1,1,1,0,0,0,68,72,78,60,92,0.55,50,-56.00,-29.00,-1002.00
467,1589374057727,-1,1,1,0,0,0,68,72,80,60,92,0.48,50,-30.00,-5.00,-981.00
468,1589374057733,-2,0,1,0,0,0,68,72,82,60,92,0.58,51,-34.00,-15.00,-911.00
469,1589374057738,-2,0,0,0,0,0,68,72,82,60,92,0.53,51,19.00,-72.00,-982.00
470,1589374057743,-1,0,0,0,0,0,68,72,81,60,92,0.73,51,-5.00,-10.00,-1055.00
471,1589374057749,0,1,0,0,0,0,69,71,82,60,92,0.61,51,-28.00,-41.00,-954.00
472,1589374057754,0,1,0,0,0,0,69,71,82,60,92,0.87,51,5.00,-39.00,-878.00
473,1589374057760,0,0,0,0,0,0,69,71,82,60,92,0.76,51,8.00,-17.00,-1007.00
474,1589374057765,0,1,0,0,0,0,69,71,81,60,92,0.80,51,-31.00,-82.00,-1055.00
475,1589374057770,0,2,0,0,0,0,69,71,81,60,92,0.59,51,21.00,-9.00,-975.00
476,1589374057776,0,1,0,0,0,0,69,71,81,60,92,0.96,51,1.00,-2.00,-1070.00
477,1589374057781,0,0,0,0,0,0,69,71,80,60,92,0.56,51,-31.00,-33.00,-1083.00
478,1589374057786,0,1,0,0,0,0,69,71,80,60,92,0.55,52,-3.00,-42.00,-949.00
479,1589374057792,0,0,0,0,0,0,69,71,80,60,92,0.59,52,-38.00,-52.00,-1018.00
480,1589374057797,0,0,0,0,0,0,69,71,81,60,92,0.81,52,26.00,-25.00,-968.00
481,1589374057802,0,0,0,0,0,0,70,71,82,60,91,0.77,52,-24.00,-20.00,-988.00
482,1589374057808,0,0,0,0,0,0,70,71,82,60,91,0.25,52,-19.00,-75.00,-964.00
483,1589374057813,-1,1,0,0,0,0,70,71,82,60,91,0.62,52,-8.00,-13.00,-934.00
484,1589374057818,-1,1,0,0,0,0,70,71,81,60,91,0.59,52,41.00,19.00,-1018.00
485,1589374057824,0,0,0,0,0,0,70,71,82,60,91,0.46,52,8.00,-20.00,-1017.00
486,1589374057829,0,0,0,0,0,0,70,71,82,60,91,0.51,52,0.00,-13.00,-1039.00
487,1589374057834,0,0,0,0,0,0,70,71,81,60,91,0.34,53,-35.00,-22.00,-1074.00
488,1589374057840,0,1,0,0,0,0,70,71,81,60,91,0.24,53,-85.00,-46.00,-1015.00
489,1589374057845,-2,0,1,0,0,0,70,71,80,60,91,0.22,53,0.00,-10.00,-908.00
490,1589374057850,-2,0,1,0,0,0,70,71,81,60,91,0.72,53,-7.00,4.00,-932.00
491,1589374057856,-1,0,1,0,0,0,69,72,81,60,91,0.34,53,-13.00,-18.00,-988.00
492,1589374057861,-1,0,1,0,0,0,69,72,81,60,91,0.08,53,-23.00,-5.00,-1001.00
493,1589374057866,-1,0,1,0,0,0,69,72,81,60,91,0.43,53,-20.00,-12.00,-975.00
494,1589374057872,-1,0,1,0,0,0,69,72,81,60,91,0.52,53,-34.00,-19.00,-1048.00
495,1589374057877,-1,1,1,0,0,0,69,72,81,60,91,0.73,53,4.00,1.00,-1002.00
496,1589374057882,-1,0,0,0,0,0,69,72,82,60,91,0.72,53,8.00,-13.00,-951.00
497,1589374057888,0,0,0,0,0,0,69,72,82,60,91,0.30,54,-27.00,-24.00,-1005.00
498,1589374057893,0,0,0,0,0,0,69,72,83,60,91,0.77,54,3.00,-35.00,-947.00
499,1589374057898,0,0,0,0,0,0,69,72,83,60,91,0.45,54,13.00,-45.00,-914.00
500,1589374057904,0,0,0,0,0,0,69,72,83,60,91,0.83,54,-27.00,-75.00,-1018.00
501,1589374057909,-1,2,0,0,0,0,70,72,83,60,91,0.66,54,-16.00,-51.00,-949.00
502,1589374057914,-1,2,0,0,0,0,70,72,83,60,91,0.89,54,26.00,-16.00,-987.00
503,1589374057920,-1,2,0,0,0,0,70,72,83,60,91,0.61,54,19.00,2.00,-898.00
504,1589374057925,-1,1,0,0,0,0,70,72,83,60,91,0.51,54,-92.00,-65.00,-1057.00
505,1589374057930,-1,1,0,0,0,0,70,72,83,60,91,0.36,54,6.00,-8.00,-996.00
506,1589374057936,-2,1,0,0,0,0,70,72,84,60,91,0.48,54,-36.00,-45.00,-974.00
507,1589374057941,-2,1,0,0,0,0,70,72,83,60,91,0.31,55,-61.00,-23.00,-974.00
508,1589374057947,-2,1,0,0,0,0,70,72,83,60,91,0.53,55,-61.00,-22.00,-1078.00
509,1589374057952,-2,1,0,0,0,0,70,72,83,60,91,0.80,55,-51.00,-27.00,-962.00
510,1589374057957,-2,0,0,0,0,0,70,72,84,60,91,0.78,55,0.00,-26.00,-954.00
511,1589374057963,-1,0,0,0,0,0,70,72,83,60,91,1.20,55,-41.00,-19.00,-1079.00
512,1589374057968,-2,1,0,0,0,0,70,72,83,60,91,0.99,55,0.00,-23.00,-1019.00
513,1589374057974,-2,2,0,0,0,0,70,72,83,60,91,0.61,55,-43.00,-28.00,-1043.00
514,1589374057979,-1,1,0,0,0,0,70,72,83,60,91,0.52,55,-8.00,-18.00,-1003.00
515,1589374057984,-1,1,0,0,0,0,70,72,83,60,91,0.78,55,-52.00,-28.00,-1016.00
516,1589374057990,-2,1,0,0,0,0,70,72,84,60,91,0.50,55,-2.00,0.00,-995.00
517,1589374057995,-1,0,0,0,0,0,70,72,84,60,91,0.77,56,-55.00,-37.00,-1042.00
518,1589374058000,-1,0,0,0,0,0,70,72,84,60,91,0.68,56,-3.00,-53.00,-868.00
519,1589374058006,-1,0,0,0,0,0,70,72,83,60,91,0.40,56,-62.00,-64.00,-981.00
520,1589374058011,-1,0,0,0,0,0,70,72,83,60,91,0.80,56,27.00,15.00,-986.00
521,1589374058017,-1,0,0,0,0,0,69,72,82,60,91,0.83,56,-45.00,-11.00,-1050.00
522,1589374058023,-1,1,0,0,0,0,69,72,81,60,91,0.52,56,42.00,-20.00,-879.00
523,1589374058028,-1,1,0,0,0,0,69,72,81,60,91,0.83,56,-52.00,-79.00,-984.00
524,1589374058033,-1,1,0,0,0,0,69,72,81,60,91,0.41,56,-13.00,-51.00,-1076.00
525,1589374058039,-1,2,0,0,0,0,69,72,80,60,91,0.41,56,13.00,-13.00,-904.00
526,1589374058044,-2,3,0,0,0,0,69,72,80,60,91,0.45,56,-45.00,-46.00,-1106.00
527,1589374058050,-2,3,0,0,0,0,69,72,80,60,91,0.55,57,-58.00,-16.00,-1133.00
528,1589374058055,-2,2,0,0,0,0,69,72,80,60,91,0.49,57,-70.00,-62.00,-980.00
529,1589374058060,-2,2,0,0,0,0,69,72,79,60,91,0.42,57,-47.00,-21.00,-1023.00
530,1589374058066,-1,1,0,0,0,0,69,72,78,60,91,0.51,57,-23.00,7.00,-998.00
531,1589374058071,-2,1,0,0,0,0,71,73,78,60,91,0.53,57,-28.00,34.00,-1029.00
532,1589374058076,-1,0,1,0,0,0,71,73,78,60,91,0.49,57,-64.00,-8.00,-1047.00
533,1589374058082,0,-1,0,0,0,0,71,73,77,60,91,0.55,57,-20.00,4.00,-945.00
534,1589374058087,-1,-1,0,0,0,0,71,73,76,60,91,0.55,57,-35.00,-50.00,-1057.00
535,1589374058093,-2,0,0,0,0,0,71,73,74,60,91,0.43,57,-59.00,-62.00,-992.00
536,1589374058098,-2,1,0,0,0,0,71,73,73,60,91,0.27,57,-39.00,-33.00,-1042.00
537,1589374058103,-3,3,1,0,0,0,71,73,71,60,91,0.15,58,-44.00,-33.00,-918.00
538,1589374058109,-4,3,1,0,0,0,71,73,70,60,91,0.23,58,-52.00,-27.00,-1101.00
539,1589374058114,-4,2,0,0,0,0,71,73,69,50,91,-0.15,58,-72.00,-51.00,-1037.00
540,1589374058119,-3,2,1,0,0,0,71,73,70,50,91,0.51,58,-86.00,8.00,-1038.00
541,1589374058125,-3,1,1,0,0,0,71,72,70,50,91,0.60,58,-73.00,0.00,-1008.00
542,1589374058131,-3,-1,1,0,0,0,71,72,71,50,91,-0.37,58,-79.00,-55.00,-983.00
543,1589374058136,-4,0,1,0,0,0,71,72,69,50,91,0.14,58,-71.00,-57.00,-990.00
544,1589374058142,-4,0,1,0,0,0,71,72,69,50,91,0.09,58,-50.00,-9.00,-1049.00
545,1589374058148,-3,1,1,0,0,0,71,72,70,50,91,0.44,58,-51.00,2.00,-995.00
546,1589374058153,-3,0,0,0,0,0,71,72,71,50,91,0.62,58,-22.00,-42.00,-945.00
547,1589374058158,-2,0,0,0,0,0,71,72,71,50,91,0.20,59,16.00,-20.00,-1012.00
548,1589374058164,-2,1,1,0,0,0,71,72,72,50,91,0.66,59,-18.00,-30.00,-1006.00
549,1589374058169,-2,1,0,0,0,0,71,72,73,50,91,0.18,59,-34.00,-16.00,-1018.00
550,1589374058175,-2,1,0,0,0,0,71,72,74,60,91,0.49,59,-34.00,-21.00,-981.00
551,1589374058180,-2,1,0,0,0,0,71,73,74,60,90,0.71,59,-14.00,-16.00,-913.00
552,1589374058185,0,2,0,1,0,0,71,73,74,60,90,0.12,59,14.00,-44.00,-954.00
553,1589374058191,0,2,0,0,0,0,71,73,75,60,90,0.15,59,22.00,-45.00,-910.00
554,1589374058196,-2,1,1,0,0,0,71,73,77,60,90,0.60,59,-66.00,-14.00,-1050.00
555,1589374058201,-2,0,1,0,0,0,71,73,79,60,90,-0.02,59,-26.00,-30.00,-926.00
556,1589374058207,-2,0,1,0,0,0,71,73,80,60,90,0.13,59,-38.00,-2.00,-953.00
557,1589374058212,-2,1,1,0,0,0,71,73,80,60,90,0.38,60,-16.00,-32.00,-946.00
558,1589374058217,-2,1,1,0,0,0,71,73,81,60,90,0.45,60,-42.00,-19.00,-983.00
559,1589374058223,-2,0,1,0,0,0,71,73,82,60,90,0.68,60,-11.00,-7.00,-962.00
560,1589374058228,-1,0,1,0,0,0,71,73,82,60,90,1.00,60,-20.00,-5.00,-971.00
561,1589374058233,-1,0,1,0,0,0,70,73,82,60,90,0.19,60,-30.00,-10.00,-954.00
562,1589374058239,-2,0,0,0,0,0,70,73,82,60,90,0.48,60,-10.00,-1.00,-981.00
563,1589374058244,-1,0,0,0,0,0,70,73,81,60,90,0.46,60,-33.00,17.00,-994.00
564,1589374058249,-2,0,0,0,0,0,70,73,81,60,90,0.29,60,-89.00,-25.00,-975.00
565,1589374058255,-2,0,0,0,0,0,70,73,81,60,90,0.33,60,-100.00,-26.00,-1008.00
566,1589374058260,-2,0,0,0,0,0,70,73,80,60,90,0.10,60,-9.00,-20.00,-969.00
567,1589374058266,-1,-1,0,0,0,0,70,73,80,60,90,0.49,61,-8.00,-57.00,-947.00
568,1589374058271,-2,0,0,0,0,0,70,73,78,60,90,0.33,61,-110.00,-52.00,-1155.00
569,1589374058276,-2,1,0,0,0,0,70,73,77,60,90,0.17,61,-80.00,-25.00,-1024.00
570,1589374058282,-3,2,1,0,0,0,70,73,77,60,90,-0.28,61,-51.00,0.00,-992.00
571,1589374058287,-4,1,1,0,0,0,71,73,76,60,90,0.69,61,-13.00,-5.00,-952.00
572,1589374058292,-4,0,1,0,0,0,71,73,76,60,90,0.06,61,-27.00,24.00,-1025.00
573,1589374058298,-3,0,1,0,0,0,71,73,77,60,90,0.25,61,-31.00,16.00,-1007.00
574,1589374058303,-2,0,0,0,0,0,71,73,77,60,90,0.41,61,-54.00,9.00,-978.00
575,1589374058308,-1,-2,0,0,0,0,71,73,78,60,90,0.42,61,16.00,-6.00,-910.00
576,1589374058314,-1,-2,1,0,0,0,71,73,78,60,90,0.21,61,-31.00,-16.00,-1004.00
577,1589374058319,0,0,1,0,0,0,71,73,76,60,90,0.37,62,-54.00,-24.00,-1026.00
578,1589374058325,-1,1,1,0,0,0,71,73,76,60,90,0.20,62,-50.00,4.00,-1002.00
579,1589374058330,0,0,1,0,0,0,71,73,76,60,90,0.05,62,-67.00,16.00,-1019.00
580,1589374058335,-2,0,1,0,0,0,71,73,78,60,90,0.47,62,-48.00,12.00,-938.00
581,1589374058341,-2,0,0,0,0,0,70,73,78,60,90,0.48,62,-32.00,-49.00,-945.00
582,1589374058346,-2,-1,0,0,0,0,70,73,79,60,90,0.16,62,-57.00,-15.00,-1055.00
583,1589374058352,-3,0,0,0,0,0,70,73,78,60,90,0.68,62,-31.00,-25.00,-965.00
584,1589374058357,-2,0,0,0,0,0,70,73,78,60,90,0.53,62,-8.00,-17.00,-933.00
585,1589374058363,-2,0,0,0,0,0,70,73,79,60,90,0.45,62,-62.00,-103.00,-885.00
586,1589374058368,0,0,0,0,0,0,70,73,78,60,90,0.81,62,6.00,-4.00,-961.00
587,1589374058373,0,1,0,0,-1,0,70,73,78,60,90,0.67,63,-27.00,5.00,-1065.00
588,1589374058379,-1,2,0,0,-1,0,70,73,77,60,90,0.36,63,-25.00,-19.00,-988.00
589,1589374058384,-2,2,0,0,0,0,70,73,78,60,90,0.75,63,3.00,12.00,-978.00
590,1589374058390,-1,1,0,0,0,0,70,73,79,60,90,0.80,63,1.00,0.00,-974.00
591,1589374058395,-1,0,0,0,0,0,71,73,81,60,90,0.52,63,-11.00,-21.00,-997.00
592,1589374058401,-1,0,0,0,0,0,71,73,82,60,90,0.62,63,1.00,-11.00,-951.00
593,1589374058406,0,0,0,0,0,0,71,73,83,60,90,0.87,63,-16.00,-42.00,-1004.00
594,1589374058411,0,0,0,0,0,0,71,73,83,60,90,0.83,63,1.00,-41.00,-1000.00
595,1589374058417,0,1,0,0,0,0,71,73,83,60,90,0.58,63,-19.00,-68.00,-959.00
596,1589374058422,0,2,0,0,0,0,71,73,83,60,90,0.79,63,-23.00,-25.00,-989.00
597,1589374058428,0,1,0,0,0,0,71,73,83,60,90,0.70,64,32.00,-16.00,-913.00
598,1589374058433,0,1,1,0,0,0,71,73,82,60,90,0.73,64,-48.00,-34.00,-1061.00
599,1589374058438,0,1,1,0,0,0,71,73,81,60,90,0.84,64,-8.00,-22.00,-1039.00
600,1589374058444,0,1,1,0,0,0,71,73,80,60,90,0.59,64,-37.00,-20.00,-1077.00
601,1589374058449,-1,1,1,0,0,0,70,73,80,60,90,0.76,64,-31.00,-4.00,-1044.00
602,1589374058455,-1,0,1,0,0,0,70,73,80,60,90,0.63,64,-12.00,-32.00,-1057.00
603,1589374058460,-1,0,0,0,0,0,70,73,80,60,90,0.57,64,-7.00,-10.00,-995.00
604,1589374058465,-1,0,0,0,0,0,70,73,80,60,90,0.60,64,-10.00,-26.00,-992.00
605,1589374058471,-1,0,0,0,0,0,70,73,80,60,90,0.66,64,-24.00,-43.00,-996.00
606,1589374058476,0,0,0,0,0,0,70,73,80,60,90,0.75,64,-39.00,-26.00,-1025.00
607,1589374058482,0,0,0,0,0,0,70,73,80,60,90,0.71,65,0.00,-16.00,-933.00
608,1589374058487,0,0,0,0,0,0,70,73,79,60,90,0.66,65,19.00,1.00,-955.00
609,1589374058492,0,0,0,0,0,0,70,73,78,60,90,0.67,65,15.00,-8.00,-1021.00
610,1589374058498,0,0,0,0,0,0,70,73,77,60,90,0.78,65,-35.00,-34.00,-1020.00
611,1589374058503,0,1,1,0,0,0,71,74,77,60,90,0.57,65,-39.00,-21.00,-1104.00
612,1589374058509,0,1,1,0,0,0,71,74,78,60,90,0.56,65,-16.00,-11.00,-1062.00
613,1589374058514,-1,1,1,0,0,0,71,74,79,60,90,0.69,65,2.00,-11.00,-1000.00
614,1589374058519,-1,1,1,0,0,0,71,74,80,60,90,0.46,65,-13.00,-7.00,-1000.00
615,1589374058525,-2,0,1,0,0,0,71,74,81,60,90,0.33,65,-38.00,-12.00,-1003.00
616,1589374058531,-1,0,1,0,0,0,71,74,81,60,90,0.69,65,-22.00,-19.00,-992.00
617,1589374058536,-1,0,1,0,0,0,71,74,82,60,90,0.82,66,-11.00,-21.00,-957.00
618,1589374058542,-1,0,1,0,0,0,71,74,82,60,90,0.62,66,-54.00,-5.00,-990.00
619,1589374058547,-1,0,1,0,0,0,71,74,83,60,90,0.67,66,-31.00,-6.00,-1013.00
620,1589374058553,-1,0,1,0,0,0,71,74,82,60,90,0.78,66,-14.00,-37.00,-981.00
621,1589374058558,-1,0,1,0,0,0,71,74,82,60,90,0.27,66,-29.00,-31.00,-1016.00
622,1589374058564,-1,0,1,0,0,0,71,74,81,60,90,0.65,66,-7.00,-29.00,-1006.00
623,1589374058569,-1,1,0,0,0,0,71,74,82,60,90,0.60,66,-17.00,-32.00,-1009.00
624,1589374058574,0,2,0,0,0,0,71,74,81,60,90,0.90,66,-9.00,-35.00,-994.00
625,1589374058580,0,1,0,0,0,0,71,74,80,60,90,0.55,66,14.00,-22.00,-1006.00
626,1589374058585,0,1,0,0,0,0,71,74,80,60,90,0.56,66,12.00,-12.00,-1031.00
627,1589374058591,0,0,0,0,0,0,71,74,79,60,90,0.63,67,-86.00,-62.00,-1053.00
628,1589374058596,-1,1,0,0,0,0,71,74,78,60,90,0.64,67,-31.00,-20.00,-926.00
629,1589374058602,-2,1,0,0,0,0,71,74,77,60,90,0.47,67,4.00,-38.00,-944.00
630,1589374058607,-2,2,0,0,0,0,71,74,76,60,90,0.58,67,-13.00,-51.00,-915.00
631,1589374058613,-1,1,0,0,0,0,71,73,75,60,90,0.69,67,-20.00,-38.00,-973.00
632,1589374058618,0,1,0,0,0,0,71,73,74,60,90,0.63,67,27.00,-48.00,-1003.00
633,1589374058624,0,2,0,0,0,1,71,73,72,60,90,0.53,67,11.00,-24.00,-1013.00
634,1589374058629,0,2,0,0,0,1,71,73,72,50,90,0.33,67,-49.00,-87.00,-1095.00
635,1589374058634,0,1,0,0,0,0,71,73,70,50,90,0.56,67,-68.00,-91.00,-1068.00
636,1589374058640,-1,2,0,0,0,0,71,73,69,50,90,0.23,67,62.00,-3.00,-1113.00
637,1589374058645,-1,3,0,0,0,0,71,73,70,50,90,0.49,68,20.00,-2.00,-1002.00
638,1589374058651,0,1,0,0,0,0,71,73,70,50,90,0.45,68,-26.00,-44.00,-1008.00
639,1589374058656,0,0,0,0,0,0,71,73,71,50,90,0.53,68,11.00,-5.00,-988.00
640,1589374058661,0,0,0,0,0,0,71,73,73,50,90,0.54,68,40.00,2.00,-989.00
641,1589374058667,0,0,0,0,0,0,71,75,73,50,90,0.71,68,-2.00,-33.00,-948.00
642,1589374058672,0,0,0,0,0,0,71,75,74,50,90,0.68,68,-20.00,-12.00,-1007.00
643,1589374058678,0,0,0,0,0,0,71,75,74,60,90,0.82,68,-27.00,-33.00,-1020.00
644,1589374058684,0,0,0,0,0,0,71,75,75,60,90,0.75,68,-36.00,-10.00,-1039.00
645,1589374058689,0,0,0,0,0,0,71,75,76,60,90,1.00,68,-62.00,-31.00,-1125.00
646,1589374058694,-1,0,0,0,0,-1,71,75,77,60,90,0.68,69,-11.00,-31.00,-1001.00
647,1589374058700,-1,0,0,0,0,0,71,75,78,60,90,0.88,69,-11.00,-23.00,-962.00
648,1589374058705,0,0,1,0,0,0,71,75,79,60,90,0.60,69,3.00,-16.00,-1008.00
649,1589374058711,0,0,1,0,0,0,71,75,80,60,90,0.36,69,4.00,-4.00,-972.00
650,1589374058716,0,0,1,0,0,0,71,75,81,60,89,0.37,69,22.00,7.00,-953.00
651,1589374058721,0,0,1,0,0,0,71,75,82,60,89,0.80,69,-4.00,7.00,-1003.00
652,1589374058727,0,0,1,0,0,0,71,75,83,60,89,0.23,69,-12.00,10.00,-986.00
653,1589374058733,0,-1,1,0,0,0,71,75,84,60,89,0.27,69,-5.00,-14.00,-1043.00
654,1589374058738,0,0,1,0,0,0,71,75,83,60,89,0.49,69,-22.00,0.00,-947.00
655,1589374058744,0,0,0,0,0,0,71,75,82,60,89,0.58,69,-40.00,-1.00,-963.00
656,1589374058749,0,0,0,0,0,0,71,75,82,60,89,0.62,70,11.00,-5.00,-929.00
657,1589374058755,-1,0,1,0,0,0,71,75,81,60,89,0.39,70,-13.00,-7.00,-988.00
658,1589374058760,0,0,1,0,0,0,71,75,80,60,89,0.53,70,-30.00,17.00,-1005.00
659,1589374058766,-1,0,1,0,0,0,71,75,79,60,89,0.07,70,-35.00,15.00,-985.00
660,1589374058771,-1,-1,1,0,0,0,71,75,79,60,89,0.68,70,-37.00,27.00,-996.00
661,1589374058777,-1,-2,1,0,0,0,71,73,79,60,89,0.39,70,-43.00,14.00,-1045.00
662,1589374058782,-2,0,1,0,0,0,71,73,79,60,89,0.12,70,-21.00,5.00,-1008.00
663,1589374058787,-3,-1,1,0,0,0,71,73,79,60,89,0.09,70,-56.00,-7.00,-988.00
664,1589374058793,-3,0,1,0,0,0,71,73,78,60,89,0.44,70,-46.00,5.00,-1001.00
665,1589374058798,-3,-2,1,0,0,0,71,73,78,60,89,0.36,70,-31.00,-37.00,-988.00
666,1589374058804,-2,0,0,0,0,0,71,73,78,60,89,0.49,71,-46.00,-26.00,-1045.00
667,1589374058809,-2,0,1,0,0,0,71,73,77,60,89,0.41,71,-19.00,-17.00,-1024.00
668,1589374058814,-2,0,1,0,0,0,71,73,77,60,89,0.51,71,3.00,-53.00,-1006.00
669,1589374058820,-1,0,1,0,-1,0,71,73,77,60,89,0.72,71,-15.00,-31.00,-1026.00
670,1589374058825,-1,2,0,0,-1,0,71,73,76,60,89,0.35,71,6.00,-3.00,-1056.00
671,1589374058831,-1,2,0,0,0,0,71,75,76,60,89,0.45,71,18.00,-3.00,-1013.00
672,1589374058836,0,0,0,0,0,0,71,75,77,60,89,0.20,71,-7.00,-11.00,-1042.00
673,1589374058841,0,0,0,0,0,0,71,75,78,60,89,0.37,71,-19.00,-16.00,-1030.00
674,1589374058847,0,0,0,0,0,0,71,75,79,60,89,0.35,71,10.00,-10.00,-973.00
675,1589374058852,0,1,0,0,0,0,71,75,79,60,89,0.34,71,-1.00,-25.00,-987.00
676,1589374058858,0,0,0,0,0,0,71,75,81,60,89,0.52,72,24.00,-23.00,-962.00
677,1589374058863,0,0,0,0,0,0,71,75,81,60,89,0.75,72,12.00,-18.00,-948.00
678,1589374058868,0,1,0,0,0,0,71,75,81,60,89,0.40,72,-9.00,-10.00,-1026.00
679,1589374058874,0,0,0,0,0,0,71,75,81,60,89,0.59,72,-12.00,-7.00,-1064.00
680,1589374058879,0,1,0,0,0,0,71,75,81,60,89,0.43,72,-38.00,-15.00,-1002.00
681,1589374058885,0,2,0,0,0,1,71,74,80,60,89,0.36,72,-6.00,-35.00,-876.00
682,1589374058890,0,0,-1,0,0,0,71,74,79,60,89,0.16,72,-5.00,-2.00,-1023.00
683,1589374058896,0,1,-3,0,0,1,71,74,78,60,89,0.59,72,-69.00,-35.00,-1041.00
684,1589374058901,-1,2,-2,0,0,1,71,74,77,60,89,0.54,72,-12.00,17.00,-1071.00
685,1589374058907,-2,0,0,0,0,1,71,74,77,60,89,0.39,72,-19.00,26.00,-1008.00
686,1589374058912,-1,-1,0,0,0,0,71,74,77,60,89,0.08,73,-89.00,-55.00,-1163.00
687,1589374058918,-2,0,0,0,0,-1,71,74,77,60,89,0.02,73,-50.00,-5.00,-1053.00
688,1589374058923,-4,0,0,-1,0,0,71,74,78,60,89,0.20,73,-33.00,4.00,-1026.00
689,1589374058928,-4,0,0,0,0,0,71,74,78,60,89,0.61,73,-33.00,-3.00,-1043.00
690,1589374058934,-3,0,0,0,0,0,71,74,78,60,89,0.07,73,-3.00,-30.00,-964.00
691,1589374058939,-2,0,0,0,0,0,72,74,78,60,89,0.54,73,-12.00,-42.00,-969.00
692,1589374058945,-1,0,0,0,0,0,72,74,78,60,89,0.40,73,-18.00,-62.00,-970.00
693,1589374058951,0,0,0,0,0,0,72,74,78,60,89,0.58,73,25.00,-27.00,-927.00
694,1589374058956,0,0,0,0,0,0,72,74,79,60,89,0.07,73,-42.00,-109.00,-1069.00
695,1589374058962,0,0,0,0,-1,0,72,74,78,60,89,0.14,73,-33.00,-96.00,-1028.00
696,1589374058967,-1,3,0,0,-1,0,72,74,78,60,89,0.44,74,43.00,-23.00,-877.00
697,1589374058972,-1,4,0,0,-1,0,72,74,78,60,89,0.77,74,34.00,-3.00,-904.00
698,1589374058978,-1,4,0,0,0,0,72,74,77,60,89,0.37,74,8.00,15.00,-1030.00
699,1589374058983,-1,2,0,0,0,0,72,74,76,60,89,0.13,74,64.00,27.00,-1000.00
700,1589374058989,0,1,0,1,0,0,72,74,76,60,89,0.46,74,-19.00,-43.00,-1087.00
701,1589374058994,0,0,0,0,0,0,72,74,78,60,89,0.29,74,24.00,-4.00,-984.00
702,1589374059000,0,1,0,0,0,0,72,74,76,60,89,0.05,74,-47.00,-62.00,-1004.00
703,1589374059005,0,3,0,0,0,0,72,74,75,60,89,0.57,74,-26.00,-91.00,-1065.00
704,1589374059011,-2,2,0,0,0,0,72,74,75,60,89,0.06,74,-14.00,-19.00,-964.00
705,1589374059016,-1,-1,0,0,0,-1,72,74,76,60,89,0.54,74,-91.00,27.00,-1119.00
706,1589374059022,-2,-1,-1,0,0,0,72,74,76,60,89,0.48,75,-70.00,-58.00,-1021.00
707,1589374059027,0,0,-1,0,0,0,72,74,74,60,89,0.56,75,76.00,51.00,-997.00
708,1589374059033,0,0,0,0,0,0,72,74,73,60,89,0.49,75,56.00,14.00,-846.00
709,1589374059038,0,1,0,0,0,0,72,74,72,60,89,0.23,75,9.00,-26.00,-1071.00
710,1589374059044,0,1,0,0,0,0,72,74,71,60,89,0.22,75,-34.00,-28.00,-1086.00
711,1589374059049,0,1,0,0,0,0,72,75,71,60,89,0.43,75,-22.00,-67.00,-1007.00
712,1589374059055,0,0,0,0,0,0,72,75,70,50,89,0.39,75,-80.00,-70.00,-1098.00
713,1589374059060,0,1,0,0,0,0,72,75,70,50,89,0.29,75,-5.00,0.00,-965.00
714,1589374059066,-2,1,1,0,0,0,72,75,70,50,89,0.21,75,41.00,38.00,-955.00
715,1589374059071,-1,0,0,0,0,0,72,75,70,50,89,0.48,75,23.00,-6.00,-1036.00
716,1589374059077,-1,0,0,0,0,0,72,75,71,50,89,0.53,76,-48.00,4.00,-1107.00
717,1589374059082,-1,1,0,0,0,0,72,75,71,50,89,0.37,76,-65.00,-7.00,-978.00
718,1589374059088,-1,2,-1,0,0,0,72,75,71,50,89,0.18,76,-105.00,-12.00,-1019.00
719,1589374059093,-2,0,-8,0,0,0,72,75,73,50,88,0.49,76,49.00,-31.00,-920.00
720,1589374059099,-2,0,-13,0,0,0,72,75,74,50,88,0.38,76,-70.00,-110.00,-1088.00
721,1589374059104,-3,2,-14,0,0,0,72,75,74,60,88,-0.19,76,-78.00,-47.00,-969.00
722,1589374059110,-2,2,-11,0,0,0,72,75,75,60,88,-0.05,76,18.00,31.00,-998.00
723,1589374059115,-3,0,-7,0,0,0,72,75,76,60,88,0.27,76,-23.00,-62.00,-1016.00
724,1589374059121,-2,0,0,0,0,0,72,75,77,60,88,0.37,76,-27.00,-23.00,-957.00
725,1589374059126,-1,-1,2,0,0,0,72,75,79,60,88,0.33,76,-30.00,19.00,-947.00
726,1589374059132,-2,0,2,0,0,0,72,75,79,60,88,0.34,77,-1.00,-17.00,-899.00
727,1589374059137,-3,0,2,0,0,0,72,75,80,60,88,0.26,77,-50.00,6.00,-1042.00
728,1589374059143,-2,0,2,0,0,0,72,75,81,60,88,0.22,77,-56.00,-17.00,-1051.00
729,1589374059148,-1,0,2,0,0,0,72,75,81,60,88,0.53,77,43.00,50.00,-960.00
730,1589374059154,-1,0,2,0,0,0,72,75,82,60,88,0.51,77,-29.00,-56.00,-948.00
731,1589374059159,-1,0,2,0,0,0,72,75,82,60,88,0.20,77,17.00,-24.00,-938.00
732,1589374059165,0,0,2,0,0,0,72,75,82,60,88,0.33,77,-17.00,0.00,-1139.00
733,1589374059170,-1,0,2,0,0,0,72,75,83,60,88,0.41,77,-19.00,-6.00,-1001.00
734,1589374059176,-1,1,1,0,0,0,72,75,84,60,88,0.29,77,-23.00,0.00,-1003.00
735,1589374059181,-1,0,1,0,0,0,72,75,84,60,88,0.53,77,-41.00,-51.00,-991.00
736,1589374059187,-2,1,1,0,0,0,72,75,84,60,88,0.20,78,-7.00,-18.00,-988.00
737,1589374059192,-2,2,1,0,0,0,72,75,83,60,88,0.65,78,-12.00,-59.00,-1072.00
738,1589374059198,-1,1,2,0,0,0,72,75,82,60,88,0.33,78,13.00,-29.00,-1021.00
739,1589374059203,0,2,2,0,0,0,72,75,83,60,88,0.56,78,-24.00,-22.00,-979.00
740,1589374059209,0,1,2,0,0,0,72,75,83,60,88,0.33,78,0.00,-25.00,-990.00
741,1589374059214,0,1,2,1,0,0,72,75,83,60,88,0.35,78,8.00,-32.00,-968.00
742,1589374059220,0,2,2,0,0,0,72,75,83,60,88,0.26,78,6.00,-18.00,-981.00
743,1589374059225,0,2,2,0,0,0,72,75,82,60,88,0.51,78,-2.00,-14.00,-989.00
744,1589374059231,0,0,2,1,0,0,72,75,83,60,88,0.40,78,23.00,-40.00,-964.00
745,1589374059236,0,0,2,0,0,0,72,75,83,60,88,0.42,78,47.00,-60.00,-974.00
746,1589374059242,0,0,2,0,0,0,72,75,81,60,88,0.70,79,42.00,-47.00,-971.00
747,1589374059247,1,2,2,0,0,0,72,75,81,60,88,0.59,79,-28.00,-19.00,-1050.00
748,1589374059253,1,2,1,0,0,0,72,75,80,60,88,0.41,79,-19.00,-31.00,-977.00
749,1589374059258,0,1,1,0,0,0,72,75,79,60,88,0.39,79,-35.00,-23.00,-998.00
750,1589374059265,0,2,1,0,0,0,72,75,77,60,88,0.77,79,-24.00,-42.00,-1024.00
751,1589374059271,-1,3,1,0,0,0,73,76,76,60,88,0.73,79,-5.00,-30.00,-1002.00
752,1589374059277,0,1,0,0,0,0,73,76,76,60,88,0.68,79,11.00,-10.00,-971.00
753,1589374059283,0,0,0,0,0,0,73,76,75,60,88,0.54,79,-58.00,-99.00,-1085.00
754,1589374059288,-1,1,0,0,0,0,73,76,74,60,88,0.39,79,-1.00,-8.00,-1005.00
755,1589374059294,-3,3,0,0,0,0,73,76,74,60,88,0.54,79,42.00,-11.00,-1006.00
756,1589374059300,-1,2,0,0,0,0,73,76,74,60,88,0.31,80,-69.00,-64.00,-1140.00
757,1589374059305,0,1,0,0,0,0,73,76,73,60,88,0.29,80,-26.00,-71.00,-1048.00
758,1589374059311,-1,3,1,0,-1,0,73,76,74,60,88,0.44,80,-14.00,-52.00,-1053.00
759,1589374059316,-1,4,1,0,0,0,73,76,74,60,87,0.50,80,-21.00,-34.00,-971.00
760,1589374059322,-1,3,1,0,0,0,73,76,74,60,87,0.29,80,-4.00,-32.00,-959.00
761,1589374059327,-1,3,1,0,0,0,73,76,74,60,87,0.58,80,-11.00,-29.00,-989.00
762,1589374059333,0,2,1,0,0,0,73,76,75,60,87,0.47,80,15.00,-50.00,-971.00
763,1589374059339,0,1,1,0,0,0,73,76,76,60,87,0.44,80,-28.00,-34.00,-930.00
764,1589374059344,0,2,1,0,0,0,73,76,75,60,87,0.32,80,-31.00,-41.00,-962.00
765,1589374059350,-1,2,0,0,0,0,73,76,75,60,87,-0.12,80,-29.00,-9.00,-992.00
766,1589374059355,-2,1,0,0,0,0,73,76,76,60,87,0.31,81,-51.00,1.00,-1007.00
767,1589374059361,-2,0,0,0,0,0,73,76,76,60,87,0.47,81,-54.00,-20.00,-900.00
768,1589374059366,-3,-1,0,0,0,0,73,76,76,60,87,0.32,81,-102.00,-82.00,-1062.00
769,1589374059372,-3,0,0,0,0,0,73,76,74,60,87,0.43,81,-27.00,-61.00,-917.00
770,1589374059378,-3,1,0,0,0,0,73,76,73,60,87,0.34,81,-18.00,-55.00,-1057.00
771,1589374059383,-2,2,0,0,0,0,73,76,71,60,87,0.33,81,-76.00,-10.00,-1034.00
772,1589374059388,-3,2,1,0,0,0,73,76,71,60,87,0.39,81,-23.00,-18.00,-975.00
773,1589374059394,-3,2,1,0,0,0,73,76,70,50,87,0.17,81,-31.00,-9.00,-1038.00
774,1589374059399,-3,2,0,0,0,0,73,76,69,50,87,0.27,81,-47.00,-11.00,-1020.00
775,1589374059405,-2,1,0,0,0,0,73,76,69,50,87,0.56,81,-18.00,-10.00,-986.00
776,1589374059410,-2,0,0,0,0,0,73,76,69,50,87,0.46,82,-6.00,-45.00,-1008.00
777,1589374059416,-1,0,0,0,0,0,73,76,68,50,87,0.42,82,-53.00,-69.00,-1057.00
778,1589374059421,0,0,0,0,0,0,73,76,69,50,87,0.17,82,-66.00,-78.00,-1154.00
779,1589374059427,-1,0,0,0,0,0,73,76,69,50,87,0.28,82,-55.00,-66.00,-1073.00
780,1589374059432,0,1,0,0,0,0,73,76,70,50,87,0.12,82,-93.00,-30.00,-1105.00
781,1589374059438,-1,3,1,0,0,-1,73,76,70,50,87,0.32,82,-43.00,7.00,-1004.00
782,1589374059443,-2,1,0,0,0,-1,73,76,71,50,87,0.18,82,-20.00,4.00,-919.00
783,1589374059449,-3,0,0,0,0,0,73,76,72,50,87,0.13,82,-74.00,3.00,-1052.00
784,1589374059454,-3,1,0,0,0,0,73,76,72,50,87,0.52,82,-14.00,-33.00,-963.00
785,1589374059460,-1,0,0,0,0,0,73,76,71,50,87,0.89,82,26.00,-22.00,-922.00
786,1589374059465,-1,0,0,0,0,0,73,76,72,50,87,0.60,83,14.00,-14.00,-1056.00
787,1589374059471,0,0,0,0,0,0,73,76,72,50,87,0.29,83,80.00,9.00,-961.00
788,1589374059476,0,1,0,1,0,0,73,76,72,50,87,0.80,83,2.00,-17.00,-1119.00
789,1589374059482,0,1,0,0,0,0,73,76,72,50,87,0.57,83,67.00,0.00,-918.00
790,1589374059487,0,1,1,0,0,0,73,76,74,50,87,0.39,83,-10.00,-59.00,-1107.00
791,1589374059493,0,1,1,0,0,0,73,75,75,60,87,0.37,83,3.00,-52.00,-971.00
792,1589374059499,0,2,1,0,0,0,73,75,77,60,87,0.66,83,53.00,-48.00,-963.00
793,1589374059504,0,2,1,0,0,-1,73,75,78,60,87,0.85,83,15.00,-31.00,-1018.00
