,timestamp,pitch,roll,yaw,vgx,vgy,vgz,templ,temph,tof,height,battery,barometer,time,agx,agy,agz
0,1589372574338,0,0,-4,0,0,0,87,89,10,0,85,-0.23,73,3.00,0.00,-1001.00
1,1589372574353,0,0,-4,0,0,0,87,89,10,0,85,-0.31,73,13.00,0.00,-999.00
2,1589372574360,0,0,-4,0,0,0,87,89,10,0,85,-0.31,73,-17.00,11.00,-1003.00
3,1589372574365,0,0,-4,0,0,0,87,89,10,0,85,-0.31,74,29.00,36.00,-990.00
4,1589372574370,0,0,-3,0,0,0,87,90,10,0,85,-0.31,74,-25.00,-14.00,-975.00
5,1589372574376,0,0,-3,0,0,0,87,90,10,0,85,-0.31,74,-22.00,0.00,-1151.00
6,1589372574381,0,0,-3,0,0,0,87,90,10,0,85,-0.31,74,45.00,-4.00,-1323.00
7,1589372574386,0,0,-3,0,0,-3,87,90,17,0,85,-0.31,74,3.00,-4.00,-1265.00
8,1589372574391,0,0,-3,0,0,-5,87,90,25,0,85,-0.11,74,17.00,-12.00,-1137.00
9,1589372574396,0,0,-3,0,0,-7,87,90,32,0,85,0.04,74,-16.00,-15.00,-1143.00
10,1589372574401,0,0,-3,0,0,-7,87,90,41,0,85,0.19,74,5.00,-6.00,-979.00
11,1589372574406,0,0,-3,0,0,-7,87,90,50,10,85,0.20,74,19.00,-12.00,-921.00
12,1589372574411,0,0,-3,0,0,-6,87,90,56,20,85,0.12,74,15.00,-8.00,-942.00
13,1589372574416,0,0,-3,0,0,-5,87,90,63,20,85,0.18,75,25.00,2.00,-886.00
14,1589372574420,0,0,-3,0,0,-4,88,91,70,30,85,0.43,75,-7.00,-10.00,-911.00
15,1589372574425,0,0,-3,0,0,-3,88,91,75,30,85,0.44,75,-1.00,-7.00,-919.00
16,1589372574430,0,0,-3,0,0,-2,88,91,80,30,85,0.58,75,7.00,0.00,-972.00
17,1589372574435,0,0,-3,0,0,-1,88,91,84,30,85,0.73,75,-7.00,1.00,-976.00
18,1589372574440,0,0,-3,0,0,0,88,91,86,40,85,0.54,75,10.00,-3.00,-942.00
19,1589372574444,0,0,-3,0,0,0,88,91,89,40,85,0.95,75,-7.00,3.00,-963.00
20,1589372574449,0,0,-3,0,0,0,88,91,91,40,85,0.75,75,5.00,3.00,-959.00
21,1589372574454,0,0,-3,0,0,0,88,91,92,40,85,0.93,75,9.00,-4.00,-979.00
22,1589372574459,0,0,-3,0,0,0,88,91,94,40,85,0.55,75,1.00,0.00,-961.00
23,1589372574464,0,0,-3,0,0,0,88,91,95,40,85,0.89,76,-2.00,-2.00,-948.00
24,1589372574469,0,0,-3,0,0,0,88,89,96,50,85,0.72,76,9.00,-10.00,-979.00
25,1589372574474,0,0,-3,0,0,0,88,89,93,50,85,0.82,76,-14.00,-4.00,-992.00
26,1589372574479,0,0,-3,0,0,0,88,89,94,50,85,0.51,76,-19.00,3.00,-990.00
27,1589372574484,0,0,-3,0,0,1,88,89,94,50,85,0.73,76,11.00,-2.00,-963.00
28,1589372574489,0,0,-3,0,0,1,88,89,93,50,85,0.73,76,2.00,-2.00,-1008.00
29,1589372574493,0,0,-3,0,0,1,88,89,93,50,85,0.66,76,2.00,4.00,-997.00
30,1589372574498,0,0,-3,0,0,1,88,89,92,50,85,0.52,76,9.00,0.00,-981.00
31,1589372574503,0,0,-3,0,0,1,88,89,91,50,85,0.91,76,56.00,7.00,-961.00
32,1589372574508,0,0,-3,0,0,1,88,89,90,40,85,1.02,77,-4.00,0.00,-1005.00
33,1589372574513,0,0,-3,0,0,1,88,89,89,40,85,0.86,77,17.00,3.00,-959.00
34,1589372574517,0,0,-3,0,0,1,88,89,89,40,85,0.83,77,-5.00,-10.00,-989.00
35,1589372574522,0,0,-3,0,0,1,88,89,88,40,85,0.59,77,-14.00,-4.00,-1029.00
36,1589372574527,0,0,-3,0,0,1,88,89,87,40,85,0.80,77,12.00,0.00,-980.00
37,1589372574532,0,0,-3,0,0,1,88,89,85,40,85,0.77,77,19.00,-9.00,-1011.00
38,1589372574537,0,0,-3,0,0,0,88,89,85,40,85,0.51,77,-21.00,-1.00,-1070.00
39,1589372574542,0,0,-3,0,0,0,88,89,84,40,85,1.07,77,-2.00,8.00,-1003.00
40,1589372574547,0,0,-3,0,0,0,88,89,83,40,85,0.62,77,11.00,4.00,-1016.00
41,1589372574552,0,0,-3,0,0,0,88,89,83,40,85,0.40,77,25.00,-5.00,-951.00
42,1589372574556,0,0,-3,0,0,0,88,89,82,40,85,0.65,78,-5.00,0.00,-1008.00
43,1589372574561,0,0,-3,0,0,0,88,89,81,40,85,0.68,78,6.00,-2.00,-972.00
44,1589372574566,0,0,-2,0,0,0,87,89,78,40,85,0.77,79,31.00,2.00,-1011.00
45,1589372574571,0,0,-2,0,0,0,87,89,78,40,85,1.13,79,-2.00,20.00,-1042.00
46,1589372574576,0,0,-3,0,0,0,87,89,78,40,85,0.72,79,-2.00,3.00,-1010.00
47,1589372574580,0,-1,-3,0,0,0,87,89,79,40,85,0.75,79,-1.00,4.00,-1030.00
48,1589372574585,0,0,-3,0,0,0,87,89,78,40,85,0.86,80,0.00,-7.00,-1033.00
49,1589372574590,0,0,-3,0,0,0,87,89,78,40,85,0.68,80,10.00,4.00,-983.00
50,1589372574595,0,0,-3,0,0,0,86,89,78,40,85,0.95,80,-2.00,1.00,-1054.00
51,1589372574600,0,0,-3,0,0,0,86,89,78,40,85,0.82,80,-15.00,-2.00,-968.00
52,1589372574605,0,0,-3,0,0,0,86,89,78,40,85,0.81,80,3.00,-5.00,-996.00
53,1589372574609,0,0,-3,0,0,0,86,89,78,40,85,0.79,80,-2.00,8.00,-1027.00
54,1589372574614,0,0,-3,0,0,0,86,89,78,40,85,0.72,80,11.00,1.00,-991.00
55,1589372574619,0,0,-3,0,0,0,86,89,78,40,85,0.56,80,6.00,4.00,-992.00
56,1589372574624,0,0,-3,0,0,0,86,89,78,40,85,0.74,80,-7.00,0.00,-1031.00
57,1589372574629,0,0,-3,0,0,0,86,89,78,40,85,0.76,80,26.00,12.00,-932.00
58,1589372574633,0,0,-3,0,0,0,86,89,78,40,85,0.96,81,23.00,-1.00,-962.00
59,1589372574638,0,0,-3,0,0,0,86,89,78,40,85,0.80,81,49.00,12.00,-941.00
60,1589372574643,0,0,-3,0,0,0,86,89,78,40,85,0.71,81,2.00,2.00,-1019.00
61,1589372574648,0,0,-3,0,0,0,86,89,78,40,85,0.70,81,2.00,0.00,-1041.00
62,1589372574653,0,0,-3,0,0,0,86,89,78,40,85,0.78,81,18.00,-2.00,-945.00
63,1589372574657,0,0,-3,0,0,0,86,89,78,40,85,0.54,81,2.00,1.00,-1018.00
64,1589372574663,0,0,-3,0,0,0,86,89,79,40,85,0.78,81,5.00,4.00,-998.00
65,1589372574668,0,0,-3,0,0,0,86,89,79,40,85,0.68,81,41.00,7.00,-947.00
66,1589372574672,0,0,-3,0,0,0,86,89,78,40,85,0.72,81,1.00,0.00,-1009.00
67,1589372574677,0,0,-3,0,0,0,86,89,78,40,85,0.78,81,-6.00,-4.00,-973.00
68,1589372574682,0,0,-3,0,0,0,86,89,78,40,85,0.59,82,17.00,9.00,-1013.00
69,1589372574687,0,0,-3,0,0,0,86,89,78,40,85,0.57,82,10.00,6.00,-1000.00
70,1589372574692,0,0,-3,0,0,0,86,88,78,40,85,0.95,82,6.00,-3.00,-1004.00
71,1589372574696,0,0,-3,0,0,0,86,88,78,40,85,0.49,82,7.00,6.00,-1032.00
72,1589372574701,0,0,-3,0,0,0,86,88,78,40,85,0.67,82,-2.00,1.00,-966.00
73,1589372574706,0,0,-3,0,0,0,86,88,78,40,85,0.71,82,-8.00,0.00,-1006.00
74,1589372574711,0,0,-3,0,0,0,86,88,77,40,85,0.73,82,10.00,3.00,-996.00
75,1589372574716,0,0,-3,0,0,0,86,88,77,40,85,0.52,82,-2.00,11.00,-1006.00
76,1589372574720,0,0,-3,0,0,0,86,88,77,40,85,0.75,82,-7.00,15.00,-1039.00
77,1589372574725,0,0,-3,0,0,0,86,88,77,40,85,0.89,82,25.00,-2.00,-973.00
78,1589372574730,0,0,-3,0,0,0,86,88,77,40,85,0.37,83,-6.00,2.00,-1021.00
79,1589372574735,0,0,-3,0,0,0,86,88,76,40,85,0.83,83,20.00,2.00,-998.00
80,1589372574740,0,0,-3,0,0,0,86,88,76,40,85,0.51,83,21.00,0.00,-1001.00
81,1589372574745,0,0,-3,0,0,0,86,88,76,30,85,0.03,83,33.00,1.00,-997.00
82,1589372574750,0,0,-3,0,0,0,86,88,75,30,85,0.43,83,-9.00,4.00,-1001.00
83,1589372574755,0,0,-3,0,0,0,86,88,75,30,85,0.25,83,-2.00,5.00,-1016.00
84,1589372574760,0,0,-3,0,0,0,86,88,75,30,85,0.41,83,-3.00,4.00,-1022.00
85,1589372574765,0,0,-3,0,0,0,86,88,75,30,85,0.53,83,12.00,9.00,-1014.00
86,1589372574769,0,0,-3,0,0,0,86,88,75,30,85,0.61,83,1.00,5.00,-983.00
87,1589372574774,0,0,-3,0,0,0,86,88,75,30,85,0.26,83,-11.00,1.00,-1054.00
88,1589372574779,0,0,-3,0,0,0,86,88,75,30,85,0.05,84,-3.00,5.00,-1015.00
89,1589372574784,0,0,-3,0,0,0,86,88,76,30,85,0.14,84,0.00,19.00,-963.00
90,1589372574789,0,0,-3,0,0,0,86,87,76,30,85,-0.01,84,7.00,1.00,-999.00
91,1589372574793,0,0,-3,0,0,0,86,87,77,30,85,0.61,84,12.00,13.00,-957.00
92,1589372574798,0,0,-3,0,0,0,86,87,77,30,85,0.48,84,-19.00,3.00,-1000.00
93,1589372574803,0,0,-3,0,0,0,86,87,77,30,85,0.77,84,7.00,2.00,-1004.00
94,1589372574808,0,0,-3,0,0,0,86,87,77,40,85,0.41,84,-3.00,-2.00,-944.00
95,1589372574813,0,0,-3,0,0,0,86,87,77,40,85,0.45,84,-17.00,5.00,-1035.00
96,1589372574818,0,0,-3,0,0,0,86,87,78,40,85,0.40,84,11.00,5.00,-1002.00
97,1589372574822,0,0,-3,0,0,0,86,87,78,40,85,0.69,84,5.00,6.00,-1013.00
98,1589372574827,0,0,-3,0,0,0,86,87,78,40,85,0.38,85,20.00,0.00,-988.00
99,1589372574832,0,0,-3,0,0,0,86,87,78,40,85,0.17,85,20.00,15.00,-1015.00
100,1589372574837,0,0,-3,0,0,0,85,88,78,40,85,0.46,85,25.00,17.00,-1015.00
101,1589372574842,0,0,-3,0,0,0,85,88,78,40,85,0.41,85,15.00,12.00,-1030.00
102,1589372574847,0,0,-3,0,0,0,85,88,78,40,85,0.72,85,6.00,-1.00,-1005.00
103,1589372574851,0,0,-3,0,0,0,85,88,78,40,85,0.21,85,6.00,4.00,-999.00
104,1589372574856,0,0,-3,0,0,0,85,88,79,40,85,0.29,85,39.00,2.00,-969.00
105,1589372574861,0,0,-3,0,0,0,85,88,79,40,85,0.15,85,4.00,11.00,-1018.00
106,1589372574866,0,0,-3,0,0,0,85,88,79,40,85,0.93,85,-19.00,13.00,-1035.00
107,1589372574871,0,0,-3,0,0,0,85,88,78,40,85,0.58,85,11.00,13.00,-1008.00
108,1589372574876,0,0,-3,0,0,0,85,88,78,40,85,0.14,86,1.00,0.00,-976.00
109,1589372574880,0,0,-3,0,0,0,85,88,77,40,85,0.25,86,29.00,7.00,-879.00
110,1589372574885,0,0,-3,0,0,0,85,88,77,40,85,0.07,86,11.00,0.00,-1014.00
111,1589372574890,0,0,-3,0,0,0,85,88,77,30,85,0.10,86,-2.00,-5.00,-979.00
112,1589372574895,0,0,-3,0,0,0,85,88,76,30,85,0.54,86,12.00,-4.00,-995.00
113,1589372574900,0,0,-3,0,0,0,85,88,76,30,85,0.33,86,23.00,0.00,-954.00
114,1589372574905,0,0,-3,0,0,0,85,88,77,30,85,0.21,86,1.00,0.00,-1001.00
115,1589372574909,0,0,-3,0,0,0,85,88,77,30,85,0.27,86,18.00,0.00,-954.00
116,1589372574914,0,0,-3,0,0,0,85,88,77,30,85,0.28,86,-7.00,4.00,-991.00
117,1589372574919,0,0,-3,0,0,0,85,88,77,40,85,0.03,86,8.00,3.00,-970.00
118,1589372574924,0,0,-3,0,0,0,85,88,77,40,85,0.46,87,4.00,9.00,-1005.00
119,1589372574929,0,0,-3,0,0,0,85,88,77,40,85,0.15,87,0.00,1.00,-995.00
120,1589372574934,0,0,-3,0,0,0,85,87,78,40,85,0.14,87,3.00,10.00,-1003.00
121,1589372574939,0,0,-3,0,0,0,85,87,78,40,85,-0.09,87,15.00,3.00,-978.00
122,1589372574944,0,0,-3,0,0,0,85,87,78,40,85,-0.02,87,-2.00,11.00,-1007.00
123,1589372574948,0,0,-3,0,0,0,85,87,77,40,85,0.25,87,49.00,7.00,-993.00
124,1589372574953,0,0,-3,0,0,0,85,87,77,40,85,0.34,87,-12.00,14.00,-999.00
125,1589372574958,0,0,-3,0,0,0,85,87,77,40,85,0.19,87,21.00,0.00,-977.00
126,1589372574963,0,0,-3,0,0,0,85,87,77,40,85,0.10,87,17.00,6.00,-1044.00
127,1589372574968,0,0,-3,0,0,0,85,87,77,40,85,-0.09,87,13.00,11.00,-994.00
128,1589372574973,0,0,-3,0,0,0,85,87,77,30,85,0.09,88,-7.00,5.00,-995.00
129,1589372574978,1,0,-3,0,0,0,85,87,77,30,85,0.54,88,13.00,7.00,-963.00
130,1589372574983,1,0,-3,0,0,0,85,87,77,30,85,0.37,88,5.00,6.00,-997.00
131,1589372574988,1,0,-3,0,0,0,85,87,76,30,85,0.31,88,21.00,8.00,-972.00
132,1589372574993,1,0,-3,0,0,0,85,87,77,30,85,0.19,88,-19.00,-3.00,-1033.00
133,1589372574998,1,0,-3,0,0,0,85,87,76,30,85,0.05,88,6.00,6.00,-1002.00
134,1589372575003,0,0,-3,0,0,0,85,87,75,30,85,0.25,88,12.00,-6.00,-1004.00
135,1589372575007,0,0,-3,0,0,0,85,87,76,30,85,0.41,88,1.00,-6.00,-1008.00
136,1589372575013,0,0,-3,0,0,0,85,87,75,30,85,0.31,88,7.00,4.00,-1038.00
137,1589372575017,0,0,-3,0,0,0,85,87,76,30,85,0.33,88,-16.00,-11.00,-1030.00
138,1589372575022,0,0,-3,0,0,0,85,87,76,30,85,0.40,89,4.00,0.00,-1008.00
139,1589372575027,0,0,-3,0,0,0,85,87,76,30,85,0.08,89,11.00,6.00,-1043.00
140,1589372575032,0,0,-3,0,0,0,85,87,77,30,85,0.50,89,-1.00,0.00,-1027.00
141,1589372575037,0,0,-3,0,0,0,85,87,77,30,85,0.35,89,-2.00,2.00,-1028.00
142,1589372575042,0,0,-3,0,0,0,85,87,77,30,85,0.57,89,11.00,4.00,-1005.00
143,1589372575047,0,0,-3,0,0,0,85,87,77,30,85,0.25,89,-11.00,-7.00,-1016.00
144,1589372575051,0,0,-3,0,0,0,85,87,77,40,85,0.56,89,-5.00,6.00,-1013.00
145,1589372575056,0,0,-3,0,0,0,85,87,78,40,85,0.43,89,-5.00,2.00,-1044.00
146,1589372575061,0,0,-3,0,0,0,85,87,78,40,85,0.20,89,-25.00,-4.00,-1007.00
147,1589372575067,0,0,-3,0,0,0,85,87,78,40,85,0.38,89,0.00,-7.00,-1021.00
148,1589372575072,0,0,-3,0,0,0,85,87,78,40,85,0.24,90,-1.00,1.00,-982.00
149,1589372575078,0,0,-3,0,0,0,85,87,78,40,85,0.73,90,-2.00,-4.00,-948.00
150,1589372575083,0,0,-3,0,0,0,83,86,78,40,85,0.38,90,22.00,0.00,-972.00
151,1589372575088,0,0,-3,0,0,0,83,86,78,40,85,0.24,90,-31.00,12.00,-1004.00
152,1589372575093,0,0,-3,0,0,0,83,86,78,40,85,0.16,90,26.00,2.00,-998.00
153,1589372575098,0,0,-3,0,0,0,83,86,78,40,85,0.38,90,9.00,-4.00,-984.00
154,1589372575104,0,0,-3,0,0,0,83,86,78,40,85,0.19,90,5.00,-11.00,-981.00
155,1589372575109,0,0,-3,0,0,0,83,86,78,40,85,0.30,90,11.00,-7.00,-1027.00
156,1589372575114,0,0,-3,0,0,0,83,86,78,40,85,0.37,90,11.00,0.00,-984.00
157,1589372575119,0,0,-3,0,0,0,83,86,79,40,85,0.65,90,27.00,4.00,-1010.00
158,1589372575124,0,0,-3,0,0,0,83,86,79,40,85,0.48,91,-1.00,-1.00,-1014.00
159,1589372575129,0,0,-3,0,0,0,83,86,79,40,85,0.43,91,0.00,2.00,-1026.00
160,1589372575134,0,0,-3,0,0,0,84,86,79,40,85,0.47,91,6.00,2.00,-1005.00
161,1589372575139,0,0,-3,0,0,0,84,86,79,40,85,0.34,91,5.00,-3.00,-999.00
162,1589372575143,0,0,-3,0,0,0,84,86,80,40,85,0.46,91,11.00,-7.00,-974.00
163,1589372575148,1,0,-3,0,0,0,84,86,80,40,85,0.29,91,6.00,5.00,-936.00
164,1589372575153,1,0,-3,0,0,0,84,86,80,40,85,0.25,91,27.00,0.00,-981.00
165,1589372575158,1,0,-3,0,0,0,84,86,80,40,85,0.37,91,-8.00,0.00,-1023.00
166,1589372575163,1,0,-3,0,0,0,84,86,80,40,85,0.43,91,12.00,7.00,-968.00
167,1589372575168,1,0,-3,0,0,0,84,86,80,40,85,0.39,91,0.00,6.00,-1017.00
168,1589372575173,0,0,-3,0,0,0,84,86,79,40,85,0.49,92,12.00,3.00,-1000.00
169,1589372575178,0,0,-3,0,0,0,84,86,79,40,85,0.43,92,36.00,0.00,-995.00
170,1589372575183,0,0,-3,0,0,0,84,86,79,40,85,0.40,92,13.00,7.00,-999.00
171,1589372575187,0,0,-3,0,0,0,84,86,79,40,85,0.39,92,13.00,1.00,-1007.00
172,1589372575193,0,0,-3,0,0,0,84,86,79,40,85,0.54,92,17.00,2.00,-1014.00
173,1589372575198,1,0,-3,0,0,0,84,86,79,40,85,0.10,92,-5.00,5.00,-1038.00
174,1589372575203,1,0,-3,0,0,0,84,86,79,40,85,0.16,92,3.00,-3.00,-1002.00
175,1589372575208,0,0,-3,0,0,0,84,86,79,40,85,0.31,92,4.00,-2.00,-1003.00
176,1589372575214,0,0,-3,0,0,0,84,86,79,40,85,0.38,92,1.00,-4.00,-981.00
177,1589372575218,0,0,-3,0,0,0,84,86,79,40,85,0.58,92,8.00,-1.00,-1004.00
178,1589372575223,0,0,-3,0,0,0,84,86,79,40,85,0.10,93,6.00,2.00,-994.00
179,1589372575228,0,0,-3,0,0,0,84,86,79,40,85,0.40,93,0.00,3.00,-1009.00
180,1589372575233,0,0,-3,0,0,0,84,86,79,40,85,0.44,93,-1.00,13.00,-1053.00
181,1589372575238,0,0,-3,0,0,0,84,86,79,40,85,0.43,93,-2.00,0.00,-946.00
182,1589372575243,0,0,-3,0,0,0,84,86,79,40,85,0.44,93,-2.00,6.00,-1001.00
183,1589372575248,0,0,-3,0,0,0,84,86,79,40,85,0.60,93,14.00,15.00,-1003.00
184,1589372575253,0,0,-3,0,0,0,84,86,78,40,85,0.29,93,21.00,10.00,-1017.00
185,1589372575258,0,0,-3,0,0,0,84,86,78,40,85,0.50,93,0.00,7.00,-1036.00
186,1589372575262,0,0,-3,0,0,0,84,86,78,40,85,0.55,93,8.00,5.00,-982.00
187,1589372575267,0,0,-3,0,0,0,84,86,78,40,85,0.57,94,3.00,1.00,-1015.00
188,1589372575272,0,0,-3,0,0,0,84,86,78,40,85,0.76,94,-7.00,3.00,-976.00
189,1589372575277,0,0,-3,0,0,0,84,86,78,40,85,0.33,94,2.00,4.00,-988.00
190,1589372575282,0,0,-3,0,0,0,84,86,78,40,85,0.69,94,3.00,2.00,-966.00
191,1589372575287,0,0,-3,0,0,0,84,86,78,40,85,0.73,94,-1.00,7.00,-984.00
192,1589372575294,0,0,-3,0,0,0,84,86,77,40,85,0.45,94,3.00,-29.00,-1029.00
193,1589372575299,0,0,-3,0,0,0,84,86,77,40,85,0.48,94,-7.00,1.00,-978.00
194,1589372575303,0,0,-3,0,0,0,84,86,77,40,85,0.69,94,28.00,0.00,-976.00
195,1589372575308,0,0,-3,0,0,0,84,86,77,30,85,0.96,94,27.00,3.00,-1036.00
196,1589372575313,0,0,-3,0,0,0,84,86,77,30,85,0.42,94,3.00,2.00,-999.00
197,1589372575318,1,0,-3,0,0,0,84,86,77,30,85,0.23,95,14.00,0.00,-997.00
198,1589372575323,1,0,-3,0,0,0,84,86,78,30,85,0.79,95,0.00,11.00,-1048.00
199,1589372575329,0,0,-3,0,0,0,84,86,78,30,85,0.45,95,-1.00,-9.00,-996.00
200,1589372575334,0,0,-3,0,0,0,84,86,78,30,85,0.43,95,7.00,3.00,-1003.00
201,1589372575339,0,0,-3,0,0,0,84,86,79,40,85,0.81,95,17.00,0.00,-995.00
202,1589372575344,0,0,-3,0,0,0,84,86,79,40,85,0.57,95,5.00,-3.00,-974.00
203,1589372575349,0,0,-3,0,0,0,84,86,80,40,85,0.52,95,11.00,-7.00,-939.00
204,1589372575354,0,0,-3,0,0,0,84,86,80,40,85,0.60,95,-3.00,11.00,-1005.00
205,1589372575359,0,0,-3,0,0,0,84,86,80,40,85,0.56,95,26.00,0.00,-970.00
206,1589372575364,0,0,-3,0,0,0,84,86,80,40,85,0.66,95,-5.00,8.00,-982.00
207,1589372575369,0,0,-3,0,0,0,84,86,80,40,85,0.76,96,11.00,4.00,-925.00
208,1589372575374,0,0,-3,0,0,0,84,86,79,40,85,0.53,96,-10.00,-4.00,-1012.00
209,1589372575379,0,0,-3,0,0,0,84,86,79,40,85,0.19,96,12.00,-3.00,-938.00
210,1589372575384,0,0,-3,0,0,0,83,86,79,40,85,0.46,96,11.00,4.00,-999.00
211,1589372575389,0,0,-3,0,0,0,83,86,78,40,85,0.40,96,6.00,0.00,-975.00
212,1589372575394,0,0,-3,0,0,0,83,86,78,40,85,0.66,96,6.00,4.00,-942.00
213,1589372575399,0,0,-2,0,0,0,83,86,78,40,85,0.31,96,16.00,4.00,-994.00
214,1589372575403,0,0,-3,0,0,0,83,86,78,30,85,0.79,96,11.00,-4.00,-1010.00
215,1589372575408,0,0,-3,0,0,0,83,86,78,30,85,0.33,96,-32.00,-3.00,-1035.00
216,1589372575413,0,0,-3,0,0,0,83,86,78,30,85,0.55,96,19.00,3.00,-984.00
217,1589372575418,0,0,-3,0,0,0,83,86,77,30,85,0.32,97,-5.00,-5.00,-986.00
218,1589372575423,0,0,-3,0,0,0,83,86,78,30,85,0.46,97,23.00,2.00,-1019.00
219,1589372575428,0,0,-3,0,0,0,83,86,78,40,85,0.67,97,19.00,0.00,-986.00
220,1589372575433,0,0,-3,0,0,0,83,86,79,40,85,0.54,97,9.00,3.00,-1024.00
221,1589372575438,0,0,-3,0,0,0,83,86,79,40,85,0.52,97,8.00,3.00,-1028.00
222,1589372575443,0,0,-3,0,0,0,83,86,79,40,85,0.77,97,5.00,-2.00,-1033.00
223,1589372575448,0,0,-3,0,0,0,83,86,80,40,85,0.61,97,10.00,5.00,-966.00
224,1589372575453,0,0,-3,0,0,0,83,86,80,40,85,0.58,97,-15.00,5.00,-1006.00
225,1589372575457,0,0,-3,0,0,0,83,86,80,40,85,0.51,97,15.00,0.00,-1041.00
226,1589372575462,0,0,-3,0,0,0,83,86,80,40,85,0.11,97,0.00,-3.00,-997.00
227,1589372575467,0,0,-3,0,0,0,83,86,80,40,85,0.12,98,8.00,-2.00,-991.00
228,1589372575472,0,0,-3,0,0,0,83,86,80,40,85,0.62,98,-1.00,-7.00,-974.00
229,1589372575477,0,0,-3,0,0,0,83,86,80,40,85,0.37,98,-9.00,9.00,-959.00
230,1589372575482,0,0,-3,0,0,0,83,85,80,40,85,0.64,98,4.00,2.00,-1003.00
231,1589372575487,0,0,-3,0,0,0,83,85,80,40,85,0.49,98,-7.00,10.00,-1056.00
232,1589372575492,0,0,-3,0,0,0,83,85,80,40,85,0.60,98,5.00,-10.00,-967.00
233,1589372575497,0,0,-3,0,0,0,83,85,79,40,85,0.42,98,0.00,7.00,-1024.00
234,1589372575502,0,0,-3,0,0,0,83,85,80,40,85,0.63,98,-1.00,-1.00,-1003.00
235,1589372575506,0,0,-3,0,0,0,83,85,80,40,85,0.48,98,-3.00,-3.00,-1014.00
236,1589372575511,0,0,-3,0,0,0,83,85,80,40,85,0.60,98,3.00,-5.00,-1006.00
237,1589372575516,0,0,-3,0,0,0,83,85,80,40,85,0.47,99,11.00,3.00,-998.00
238,1589372575521,0,0,-3,0,0,0,83,85,80,40,85,0.43,99,-17.00,-4.00,-1004.00
239,1589372575526,0,0,-3,0,0,0,83,85,80,40,85,0.49,99,-10.00,0.00,-1006.00
240,1589372575532,0,0,-3,0,0,0,83,86,81,40,85,0.52,99,9.00,-3.00,-966.00
241,1589372575537,0,0,-3,0,0,0,83,86,81,40,85,0.53,99,-2.00,-9.00,-1002.00
242,1589372575542,0,0,-3,0,0,0,83,86,80,40,85,0.41,99,12.00,-8.00,-988.00
243,1589372575547,0,0,-3,0,0,0,83,86,80,40,85,0.08,99,17.00,-3.00,-951.00
244,1589372575552,0,0,-3,0,0,0,83,86,80,40,85,0.50,99,18.00,4.00,-1010.00
245,1589372575557,0,0,-3,0,0,0,83,86,80,40,85,0.46,99,-5.00,0.00,-1009.00
246,1589372575562,0,0,-3,0,0,0,83,86,80,40,85,0.15,99,-28.00,-3.00,-1043.00
247,1589372575567,0,0,-3,0,0,0,83,86,80,40,85,0.51,100,1.00,6.00,-963.00
248,1589372575572,0,0,-3,0,0,0,83,86,79,40,85,0.37,100,-10.00,-1.00,-1016.00
249,1589372575576,0,0,-3,0,0,0,83,86,79,40,85,0.29,100,-2.00,-2.00,-997.00
250,1589372575581,0,0,-3,0,0,0,83,85,79,40,85,0.14,100,1.00,3.00,-988.00
251,1589372575586,0,0,-3,0,0,0,83,85,79,40,85,0.02,100,-15.00,2.00,-1028.00
252,1589372575591,0,0,-3,0,0,0,83,85,78,40,85,0.07,100,17.00,4.00,-968.00
253,1589372575596,0,0,-3,0,0,0,83,85,78,40,85,0.71,100,-3.00,0.00,-1017.00
254,1589372575601,0,0,-3,0,0,0,83,85,78,40,85,0.18,100,-20.00,-1.00,-1087.00
255,1589372575606,0,0,-3,0,0,0,83,85,78,40,85,0.39,100,-5.00,1.00,-984.00
256,1589372575611,0,0,-3,0,0,0,83,85,78,40,85,0.11,100,14.00,7.00,-973.00
257,1589372575616,0,0,-3,0,0,0,83,85,78,40,85,0.29,101,9.00,4.00,-1006.00
258,1589372575621,0,0,-3,0,0,0,83,85,79,40,85,0.27,101,40.00,25.00,-1018.00
259,1589372575626,0,0,-3,0,0,0,83,85,79,40,85,0.16,101,18.00,2.00,-1005.00
260,1589372575630,0,0,-3,0,0,0,83,84,80,40,85,0.54,101,0.00,8.00,-994.00
261,1589372575635,0,0,-3,0,0,0,83,84,81,40,85,0.29,101,12.00,1.00,-983.00
262,1589372575640,0,0,-3,0,0,0,83,84,82,40,85,0.15,101,21.00,-8.00,-902.00
263,1589372575646,0,0,-3,0,0,0,83,84,83,40,85,-0.04,101,-5.00,-5.00,-925.00
264,1589372575651,0,0,-3,0,0,0,83,84,84,40,85,0.21,101,-6.00,1.00,-1020.00
265,1589372575656,0,0,-3,0,0,0,83,84,85,40,85,0.45,101,2.00,3.00,-981.00
266,1589372575661,0,0,-3,0,0,0,83,84,86,40,85,0.75,101,20.00,-1.00,-967.00
267,1589372575667,0,0,-3,0,0,0,83,84,87,40,85,0.43,102,28.00,10.00,-915.00
268,1589372575672,0,0,-3,0,0,0,83,84,88,40,85,0.33,102,-36.00,-4.00,-1101.00
269,1589372575677,0,0,-3,0,0,0,83,84,88,40,85,0.23,102,17.00,8.00,-953.00
270,1589372575682,0,0,-3,0,0,0,82,85,88,40,85,0.03,102,0.00,1.00,-982.00
271,1589372575688,0,0,-3,0,0,0,82,85,88,40,85,0.24,102,-7.00,3.00,-966.00
272,1589372575693,0,0,-3,0,0,0,82,85,88,40,85,0.36,102,-7.00,-7.00,-976.00
273,1589372575698,0,0,-3,0,0,0,82,85,87,40,85,0.12,102,1.00,-3.00,-970.00
274,1589372575703,0,0,-3,0,0,0,82,85,86,40,84,0.63,102,-1.00,3.00,-1024.00
275,1589372575708,0,0,-3,0,0,0,82,85,85,40,84,0.09,102,-12.00,8.00,-1012.00
276,1589372575713,0,0,-3,0,0,0,82,85,84,40,84,0.42,102,-13.00,4.00,-1040.00
277,1589372575718,0,0,-3,0,0,0,82,85,83,40,84,0.30,103,-17.00,12.00,-1025.00
278,1589372575723,0,0,-3,0,0,0,82,85,82,40,84,0.25,103,10.00,7.00,-1019.00
279,1589372575727,0,0,-3,0,0,0,82,85,81,40,84,0.18,103,4.00,5.00,-1019.00
280,1589372575732,0,0,-3,0,0,0,83,85,80,40,84,0.29,103,7.00,8.00,-991.00
281,1589372575737,0,0,-3,0,0,0,83,85,80,40,84,0.19,103,29.00,22.00,-991.00
282,1589372575743,0,0,-3,0,0,0,83,85,79,40,84,-0.07,103,18.00,7.00,-983.00
283,1589372575748,0,0,-3,0,0,0,83,85,78,40,84,0.28,103,0.00,-3.00,-1019.00
284,1589372575752,0,0,-3,0,0,0,83,85,78,40,84,0.57,103,27.00,-24.00,-1002.00
285,1589372575757,0,0,-3,0,0,0,83,85,77,40,84,0.33,103,17.00,-1.00,-980.00
286,1589372575762,0,0,-3,0,0,0,83,85,76,40,84,0.56,103,22.00,0.00,-1004.00
287,1589372575767,0,0,-3,0,0,0,83,85,75,30,84,0.19,104,-16.00,-9.00,-1070.00
288,1589372575772,0,0,-3,0,0,0,83,85,75,30,84,0.13,104,4.00,5.00,-1028.00
289,1589372575777,0,0,-3,0,0,0,83,85,75,30,84,0.47,104,9.00,0.00,-1006.00
290,1589372575782,0,0,-3,0,0,0,82,85,75,30,84,0.58,104,-16.00,9.00,-1050.00
291,1589372575787,0,0,-3,0,0,0,82,85,74,30,84,0.37,104,-4.00,-5.00,-1072.00
292,1589372575792,0,0,-3,0,0,0,82,85,74,30,84,0.42,104,3.00,7.00,-979.00
293,1589372575797,0,0,-3,0,0,0,82,85,74,30,84,0.23,104,11.00,1.00,-954.00
294,1589372575802,0,0,-3,0,0,0,82,85,74,30,84,0.17,104,-4.00,9.00,-1034.00
295,1589372575807,0,0,-3,0,0,0,82,85,74,30,84,0.29,104,23.00,10.00,-950.00
296,1589372575812,0,0,-3,0,0,0,82,85,74,30,84,0.23,104,-21.00,7.00,-1033.00
297,1589372575817,0,0,-3,0,0,0,82,85,74,30,84,0.17,105,0.00,4.00,-990.00
298,1589372575822,0,0,-3,0,0,0,82,85,74,30,84,0.15,105,-1.00,10.00,-988.00
299,1589372575827,0,0,-3,0,0,0,82,85,74,30,84,0.26,105,-11.00,27.00,-1045.00
300,1589372575832,0,0,-3,0,0,0,83,85,75,30,84,0.13,105,3.00,11.00,-1008.00
301,1589372575836,0,-1,-3,0,0,0,83,85,75,30,84,0.20,105,0.00,18.00,-987.00
302,1589372575841,0,-1,-3,0,0,0,83,85,76,30,84,0.14,105,6.00,10.00,-1007.00
303,1589372575846,0,-1,-3,0,0,0,83,85,76,30,84,0.48,105,3.00,11.00,-1052.00
304,1589372575851,0,-1,-3,0,0,0,83,85,77,30,84,0.52,105,8.00,7.00,-960.00
305,1589372575856,0,0,-3,0,0,0,83,85,76,30,84,0.24,105,20.00,10.00,-1005.00
306,1589372575861,0,0,-3,0,0,0,83,85,76,30,84,0.27,105,8.00,6.00,-997.00
307,1589372575866,0,0,-3,0,0,0,83,85,76,30,84,0.50,106,10.00,6.00,-977.00
308,1589372575871,0,0,-3,0,0,0,83,85,76,30,84,0.19,106,-4.00,5.00,-1041.00
309,1589372575876,0,0,-3,0,0,0,83,85,76,30,84,0.45,106,27.00,6.00,-947.00
310,1589372575881,0,0,-3,0,0,0,83,85,77,30,84,0.22,106,-1.00,-1.00,-1017.00
311,1589372575886,0,0,-3,0,0,0,83,85,77,30,84,0.26,106,27.00,3.00,-1026.00
312,1589372575891,0,0,-3,0,0,0,83,85,77,30,84,0.08,106,13.00,-3.00,-973.00
313,1589372575896,0,0,-3,0,0,0,83,85,78,30,84,0.35,106,-19.00,-4.00,-1049.00
314,1589372575901,0,0,-3,0,0,0,83,85,78,30,84,0.16,106,17.00,6.00,-986.00
315,1589372575906,0,0,-3,0,0,0,83,85,79,30,84,0.18,106,-3.00,16.00,-945.00
316,1589372575911,0,0,-3,0,0,0,83,85,80,40,84,0.33,106,17.00,3.00,-981.00
317,1589372575916,0,0,-3,0,0,0,83,85,80,40,84,0.50,107,-12.00,7.00,-1018.00
318,1589372575921,0,0,-3,0,0,0,83,85,80,40,84,0.37,107,7.00,6.00,-931.00
319,1589372575926,0,0,-3,0,0,0,83,85,80,40,84,0.58,107,13.00,13.00,-992.00
320,1589372575931,0,0,-3,0,0,0,82,85,81,40,84,0.17,107,12.00,3.00,-983.00
321,1589372575936,0,0,-3,0,0,0,82,85,81,40,84,0.21,107,10.00,-1.00,-984.00
322,1589372575941,0,0,-3,0,0,0,82,85,80,40,84,0.14,107,15.00,3.00,-992.00
323,1589372575946,0,0,-3,0,0,0,82,85,80,40,84,0.26,107,-4.00,12.00,-1016.00
324,1589372575951,0,0,-3,0,0,0,82,85,80,40,83,0.54,107,-6.00,-1.00,-1046.00
325,1589372575956,0,0,-3,0,0,0,82,85,80,40,83,0.24,107,21.00,11.00,-1017.00
326,1589372575961,0,0,-3,0,0,0,82,85,80,40,83,0.43,107,0.00,-10.00,-986.00
327,1589372575966,0,0,-3,0,0,0,82,85,80,40,83,0.50,108,-1.00,0.00,-958.00
328,1589372575971,0,0,-3,0,0,0,82,85,80,40,83,0.55,108,1.00,-7.00,-1004.00
329,1589372575976,0,0,-3,0,0,0,82,85,80,40,83,0.40,108,21.00,3.00,-960.00
330,1589372575981,0,0,-3,0,0,0,82,84,79,40,83,0.26,108,-20.00,5.00,-1020.00
331,1589372575986,0,0,-3,0,0,0,82,84,79,40,83,0.33,108,16.00,8.00,-969.00
332,1589372575991,0,0,-3,0,0,0,82,84,78,40,83,0.48,108,27.00,20.00,-968.00
333,1589372575996,0,0,-3,0,0,0,82,84,77,40,83,0.34,108,9.00,1.00,-935.00
334,1589372576001,0,0,-3,0,0,0,82,84,76,40,83,0.37,108,3.00,9.00,-1046.00
335,1589372576006,0,0,-3,0,0,0,82,84,75,30,83,0.35,108,15.00,12.00,-1041.00
336,1589372576011,0,0,-3,0,0,0,82,84,75,30,83,0.47,108,-17.00,21.00,-1044.00
337,1589372576016,0,0,-3,0,0,0,82,84,74,30,83,0.17,109,0.00,-4.00,-1031.00
338,1589372576021,0,0,-3,0,0,0,82,84,74,30,83,0.30,109,0.00,3.00,-932.00
339,1589372576026,0,0,-3,0,0,0,82,84,73,30,83,0.20,109,-41.00,0.00,-1095.00
340,1589372576031,0,0,-3,0,0,0,82,84,73,30,83,0.32,109,38.00,23.00,-959.00
341,1589372576036,0,0,-3,0,0,0,82,84,73,30,83,0.19,109,19.00,15.00,-1031.00
342,1589372576041,0,0,-3,0,0,0,82,84,73,30,83,0.27,109,-6.00,5.00,-1021.00
343,1589372576046,0,0,-3,0,0,0,82,84,73,30,83,0.49,109,-30.00,0.00,-1053.00
344,1589372576051,0,0,-3,0,0,0,82,84,73,30,83,0.42,109,1.00,27.00,-1052.00
345,1589372576056,0,0,-3,0,0,0,82,84,73,30,83,0.40,109,-25.00,3.00,-1025.00
346,1589372576061,0,0,-3,0,0,0,82,84,73,30,83,0.37,109,-5.00,25.00,-1042.00
347,1589372576066,0,0,-3,0,0,0,82,84,73,30,83,0.33,110,17.00,0.00,-931.00
348,1589372576071,0,0,-3,0,0,0,82,84,74,30,83,0.43,110,20.00,12.00,-1065.00
349,1589372576076,0,0,-3,0,0,0,82,84,75,30,83,0.52,110,-27.00,-8.00,-1054.00
350,1589372576081,0,0,-3,0,0,0,82,85,75,30,83,0.35,110,15.00,7.00,-954.00
351,1589372576086,0,0,-3,0,0,0,82,85,76,30,83,0.53,110,-12.00,5.00,-1037.00
352,1589372576091,0,0,-3,0,0,0,82,85,76,30,83,0.53,110,8.00,-10.00,-979.00
353,1589372576096,0,0,-3,0,0,0,82,85,77,30,83,0.63,110,-1.00,-1.00,-988.00
354,1589372576101,0,0,-3,0,0,0,82,85,78,30,83,0.23,110,40.00,18.00,-949.00
355,1589372576106,0,0,-3,0,0,0,82,85,79,30,83,0.30,110,39.00,8.00,-917.00
356,1589372576111,0,0,-3,0,0,0,82,85,80,40,83,0.54,110,2.00,4.00,-995.00
357,1589372576116,0,0,-3,0,0,0,82,85,81,40,83,0.65,111,3.00,-7.00,-972.00
358,1589372576121,0,0,-3,0,0,0,82,85,81,40,83,0.38,111,8.00,-4.00,-968.00
359,1589372576126,0,0,-3,0,0,0,82,85,82,40,83,0.53,111,8.00,4.00,-1005.00
360,1589372576131,0,0,-3,0,0,0,82,85,82,40,83,0.23,111,17.00,4.00,-958.00
361,1589372576136,0,0,-3,0,0,0,82,85,82,40,83,0.37,111,12.00,6.00,-1005.00
362,1589372576141,0,0,-3,0,0,0,82,85,83,40,83,0.28,111,1.00,11.00,-1013.00
363,1589372576146,0,0,-3,0,0,0,82,85,82,40,83,0.20,111,-2.00,9.00,-968.00
364,1589372576151,0,0,-3,0,0,0,82,85,82,40,82,0.25,111,8.00,0.00,-951.00
365,1589372576156,0,0,-3,0,0,0,82,85,82,40,82,0.35,111,-4.00,6.00,-1035.00
366,1589372576161,0,0,-3,0,0,0,82,85,82,40,82,0.06,112,4.00,0.00,-1005.00
367,1589372576166,0,0,-3,0,0,0,82,85,82,40,82,0.37,112,-10.00,-7.00,-983.00
368,1589372576171,0,0,-3,0,0,0,82,85,82,40,82,0.36,112,29.00,7.00,-949.00
369,1589372576176,0,0,-3,0,0,0,82,85,82,40,82,0.41,112,-41.00,-12.00,-1102.00
370,1589372576181,0,0,-3,0,0,0,82,85,81,40,82,0.40,112,-14.00,4.00,-1052.00
371,1589372576186,0,0,-3,0,0,0,82,85,81,40,82,0.47,112,-29.00,-4.00,-1067.00
372,1589372576191,0,0,-3,0,0,0,82,85,80,40,82,0.61,112,7.00,7.00,-1044.00
373,1589372576196,0,0,-3,0,0,0,82,85,79,40,82,0.51,112,6.00,-5.00,-1000.00
374,1589372576201,0,0,-3,0,0,0,82,85,79,40,82,0.42,112,2.00,4.00,-1002.00
375,1589372576206,0,0,-3,0,0,0,82,85,79,40,82,0.69,112,24.00,7.00,-963.00
376,1589372576211,0,0,-3,0,0,0,82,85,80,40,82,0.28,113,7.00,3.00,-1032.00
377,1589372576216,0,0,-3,0,0,0,82,85,80,40,82,0.69,113,-35.00,2.00,-1087.00
378,1589372576221,0,0,-3,0,0,0,82,85,80,40,82,0.66,113,-8.00,-2.00,-974.00
379,1589372576226,0,0,-3,0,0,0,82,85,81,40,82,0.46,113,-6.00,0.00,-951.00
380,1589372576231,0,0,-3,0,0,0,82,84,81,40,82,0.48,113,25.00,6.00,-947.00
381,1589372576236,0,0,-3,0,0,0,82,84,81,40,82,0.71,113,-24.00,5.00,-1051.00
382,1589372576241,0,0,-3,0,0,0,82,84,81,40,82,0.39,113,-11.00,3.00,-1000.00
383,1589372576246,0,0,-3,0,0,0,82,84,80,40,82,0.54,113,8.00,21.00,-988.00
384,1589372576251,0,0,-3,0,0,0,82,84,80,40,82,0.35,113,22.00,11.00,-1026.00
385,1589372576256,0,0,-3,0,0,0,82,84,79,40,82,0.47,113,0.00,12.00,-952.00
386,1589372576261,0,0,-3,0,0,0,82,84,79,40,82,0.40,114,-15.00,-4.00,-1061.00
387,1589372576268,0,0,-3,0,0,0,82,84,78,40,82,0.57,114,0.00,15.00,-1074.00
388,1589372576273,0,0,-3,0,0,0,82,84,77,40,82,0.35,114,0.00,17.00,-1041.00
389,1589372576278,0,0,-3,0,0,0,82,84,77,30,82,0.46,114,-12.00,1.00,-1010.00
390,1589372576283,0,0,-3,0,0,0,82,84,76,30,82,0.37,114,-14.00,0.00,-1033.00
391,1589372576288,0,0,-3,0,0,0,82,84,76,30,82,0.84,114,-19.00,3.00,-1040.00
392,1589372576293,0,0,-3,0,0,0,82,84,76,30,82,0.49,114,24.00,2.00,-930.00
393,1589372576299,0,0,-3,0,0,0,82,84,76,30,82,0.42,114,-5.00,14.00,-1012.00
394,1589372576304,0,0,-3,0,0,0,82,84,76,30,82,0.72,114,-10.00,20.00,-1018.00
395,1589372576309,0,0,-3,0,0,0,82,84,77,30,82,0.74,114,19.00,5.00,-988.00
396,1589372576314,0,0,-3,0,0,0,82,84,77,40,82,0.37,115,1.00,6.00,-944.00
397,1589372576319,0,0,-3,0,0,0,82,84,77,40,82,0.45,115,10.00,10.00,-933.00
398,1589372576324,0,0,-3,0,0,0,82,84,77,40,82,0.55,115,-4.00,4.00,-1052.00
399,1589372576329,0,0,-3,0,0,0,82,84,77,40,82,0.45,115,10.00,14.00,-993.00
400,1589372576334,0,0,-3,0,0,0,81,84,77,40,82,0.41,115,-1.00,21.00,-1016.00
401,1589372576339,0,0,-3,0,0,0,81,84,77,40,82,0.31,115,0.00,7.00,-1017.00
402,1589372576345,0,-1,-3,0,0,0,81,84,77,40,82,0.57,115,6.00,-6.00,-979.00
403,1589372576350,0,0,-3,0,0,0,81,84,77,40,82,0.75,115,-3.00,7.00,-1009.00
404,1589372576355,0,0,-3,0,0,0,81,84,77,40,82,0.76,115,4.00,8.00,-996.00
405,1589372576360,0,0,-2,0,0,0,81,84,77,40,82,0.91,115,1.00,8.00,-1016.00
406,1589372576365,0,0,-2,0,0,0,81,84,77,40,82,0.36,116,5.00,8.00,-1019.00
407,1589372576370,0,0,-2,0,0,0,81,84,77,40,82,0.46,116,-12.00,-6.00,-1017.00
408,1589372576375,0,-1,-3,0,0,0,81,84,78,40,82,0.32,116,28.00,3.00,-935.00
409,1589372576380,0,0,-3,0,0,0,81,84,79,40,82,0.47,116,7.00,14.00,-1002.00
410,1589372576385,0,0,-3,0,0,0,81,84,79,40,82,0.72,116,-2.00,3.00,-951.00
411,1589372576390,0,0,-3,0,0,0,81,84,80,40,82,0.66,116,13.00,5.00,-1014.00
412,1589372576395,0,0,-3,0,0,0,81,84,80,40,82,0.25,116,9.00,7.00,-988.00
413,1589372576400,0,0,-3,0,0,0,81,84,80,40,82,0.61,116,-14.00,-9.00,-1011.00
414,1589372576405,0,0,-3,0,0,0,81,84,80,40,81,0.62,116,10.00,4.00,-998.00
415,1589372576410,0,0,-3,0,0,0,81,84,81,40,81,0.68,116,-20.00,-10.00,-1051.00
416,1589372576415,0,0,-3,0,0,0,81,84,81,40,81,0.56,117,6.00,-2.00,-1001.00
417,1589372576420,0,0,-3,0,0,0,81,84,81,40,81,0.39,117,16.00,4.00,-982.00
418,1589372576425,0,0,-3,0,0,0,81,84,82,40,81,0.53,117,12.00,0.00,-998.00
419,1589372576430,0,0,-3,0,0,0,81,84,82,40,81,0.46,117,2.00,9.00,-975.00
420,1589372576435,0,0,-3,0,0,0,81,84,82,40,81,0.44,117,7.00,1.00,-956.00
421,1589372576440,0,0,-3,0,0,0,81,84,82,40,81,0.69,117,-2.00,-2.00,-1004.00
422,1589372576445,0,0,-3,0,0,0,81,84,82,40,81,0.45,117,9.00,14.00,-958.00
423,1589372576450,0,0,-3,0,0,0,81,84,82,40,81,0.74,117,9.00,2.00,-1036.00
424,1589372576455,0,0,-3,0,0,0,81,84,82,40,81,0.67,117,4.00,2.00,-995.00
425,1589372576460,0,0,-3,0,0,0,81,84,82,40,81,0.58,117,-12.00,-2.00,-1018.00
426,1589372576465,0,0,-3,0,0,0,81,84,82,40,81,0.51,118,-5.00,-5.00,-999.00
427,1589372576471,0,0,-3,0,0,0,81,84,82,40,81,0.55,118,4.00,-10.00,-972.00
428,1589372576476,0,0,-3,0,0,0,81,84,81,40,81,0.59,118,10.00,4.00,-982.00
429,1589372576481,0,0,-3,0,0,0,81,84,81,40,81,0.65,118,1.00,-34.00,-988.00
430,1589372576486,0,1,-3,0,0,0,82,84,80,40,81,0.51,118,-3.00,-21.00,-1031.00
431,1589372576491,0,0,-3,0,0,0,82,84,80,40,81,0.49,118,-3.00,-7.00,-1007.00
432,1589372576496,0,0,-3,0,0,0,82,84,79,40,81,0.40,118,-3.00,4.00,-1069.00
433,1589372576501,0,0,-3,0,0,0,82,84,79,40,81,0.62,118,7.00,9.00,-1016.00
434,1589372576506,0,0,-3,0,0,0,82,84,78,40,81,0.76,118,10.00,-17.00,-975.00
435,1589372576511,0,0,-3,0,0,0,82,84,77,40,81,0.81,118,3.00,-9.00,-1008.00
436,1589372576517,0,0,-3,0,0,0,82,84,76,40,81,0.64,119,9.00,-18.00,-981.00
437,1589372576522,0,0,-3,0,0,0,82,84,76,40,81,0.54,119,-5.00,-9.00,-1002.00
438,1589372576527,0,0,-3,0,0,0,82,84,75,30,81,0.31,119,10.00,-7.00,-1041.00
439,1589372576532,0,0,-3,0,0,0,82,84,75,30,81,0.67,119,-4.00,-11.00,-989.00
440,1589372576537,0,0,-3,0,0,0,81,84,75,30,81,0.49,119,14.00,-22.00,-987.00
441,1589372576542,0,0,-3,0,0,0,81,84,75,30,81,0.45,119,10.00,-8.00,-984.00
442,1589372576547,0,0,-3,0,0,0,81,84,75,30,81,0.73,119,17.00,-4.00,-986.00
443,1589372576552,0,0,-3,0,0,0,81,84,76,30,81,0.38,119,8.00,-16.00,-1010.00
444,1589372576557,0,0,-3,0,0,0,81,84,77,30,81,0.77,119,0.00,-2.00,-1008.00
445,1589372576562,0,0,-3,0,0,0,81,84,77,30,81,0.46,119,37.00,-13.00,-981.00
446,1589372576567,0,0,-3,0,0,0,81,84,77,30,81,0.57,120,-17.00,-6.00,-1045.00
447,1589372576572,0,0,-3,0,0,0,81,84,78,30,81,0.81,120,0.00,-11.00,-1047.00
448,1589372576577,0,0,-3,0,0,0,81,84,78,30,81,0.67,120,35.00,8.00,-1035.00
449,1589372576582,0,0,-3,0,0,0,81,84,79,40,81,0.57,120,1.00,-14.00,-948.00
450,1589372576587,0,0,-3,0,0,0,81,84,80,40,81,0.47,120,20.00,-20.00,-942.00
451,1589372576592,0,0,-3,0,0,0,81,84,80,40,81,0.86,120,7.00,-11.00,-976.00
452,1589372576597,0,0,-3,0,0,0,81,84,80,40,81,0.74,120,11.00,-13.00,-1016.00
453,1589372576602,0,0,-3,0,0,0,81,84,80,40,81,0.72,120,27.00,6.00,-965.00
454,1589372576607,0,0,-3,0,0,0,81,84,79,40,81,0.60,120,-7.00,-7.00,-1011.00
455,1589372576612,0,0,-3,0,0,0,81,84,79,40,81,0.58,120,1.00,7.00,-1085.00
456,1589372576618,0,0,-3,0,0,0,81,84,78,40,81,0.84,121,40.00,0.00,-930.00
457,1589372576623,0,0,-3,0,0,0,81,84,78,40,81,0.67,121,25.00,-8.00,-958.00
458,1589372576628,0,0,-3,0,0,0,81,84,76,40,81,0.42,121,27.00,-10.00,-926.00
459,1589372576633,0,0,-3,0,0,0,81,84,75,30,81,0.34,121,4.00,9.00,-1022.00
460,1589372576638,0,0,-3,0,0,0,81,84,75,30,81,0.28,121,33.00,2.00,-943.00
461,1589372576644,0,0,-3,0,0,0,81,84,75,30,81,0.46,121,7.00,2.00,-1029.00
462,1589372576649,0,0,-3,0,0,0,81,84,75,30,81,0.59,121,0.00,-9.00,-1002.00
463,1589372576654,0,0,-3,0,0,0,81,84,74,30,81,0.23,121,1.00,4.00,-985.00
464,1589372576659,0,0,-3,0,0,0,81,84,74,30,81,0.77,121,31.00,14.00,-967.00
465,1589372576664,0,0,-3,0,0,0,81,84,74,30,81,0.47,121,18.00,-16.00,-929.00
466,1589372576669,0,0,-3,0,0,0,81,84,74,30,81,0.33,122,17.00,1.00,-991.00
467,1589372576674,0,0,-3,0,0,0,81,84,73,30,81,0.30,122,-24.00,-4.00,-1115.00
468,1589372576679,0,0,-3,0,0,0,81,84,73,30,81,0.18,122,-2.00,-1.00,-1035.00
469,1589372576684,0,0,-3,0,0,0,81,84,72,30,81,0.09,122,19.00,-5.00,-1016.00
470,1589372576690,0,0,-3,0,0,0,82,84,72,30,81,0.52,122,-19.00,-4.00,-1066.00
471,1589372576695,0,0,-3,0,0,0,82,84,71,30,81,0.17,122,5.00,-6.00,-1034.00
472,1589372576700,0,0,-3,0,0,0,82,84,71,30,81,0.69,122,-10.00,-4.00,-1029.00
473,1589372576705,0,0,-3,0,0,0,82,84,71,30,81,0.45,122,18.00,1.00,-968.00
474,1589372576710,0,0,-3,0,0,0,82,84,71,30,81,0.24,122,-1.00,1.00,-1019.00
475,1589372576715,0,0,-3,0,0,0,82,84,71,30,81,0.61,122,17.00,10.00,-937.00
476,1589372576721,0,0,-3,0,0,0,82,84,71,30,81,0.51,123,8.00,0.00,-955.00
477,1589372576726,0,0,-3,0,0,0,82,84,72,30,81,0.44,123,-18.00,-14.00,-1040.00
478,1589372576731,0,0,-3,0,0,0,82,84,72,30,81,0.46,123,-9.00,-5.00,-1006.00
479,1589372576737,0,0,-3,0,0,0,82,84,73,30,81,0.21,123,1.00,-18.00,-1009.00
480,1589372576742,0,0,-3,0,0,0,81,84,73,30,81,0.75,123,19.00,0.00,-940.00
481,1589372576747,0,0,-3,0,0,0,81,84,73,30,81,0.69,123,5.00,3.00,-1039.00
482,1589372576752,0,0,-3,0,0,0,81,84,73,30,81,0.75,123,45.00,5.00,-901.00
483,1589372576757,0,0,-3,0,0,0,81,84,73,30,81,0.21,123,0.00,2.00,-1014.00
484,1589372576762,0,0,-3,0,0,0,81,84,73,30,81,0.72,123,-8.00,-4.00,-961.00
485,1589372576767,0,0,-3,0,0,0,81,84,73,30,81,0.26,123,22.00,0.00,-956.00
486,1589372576772,0,0,-3,0,0,0,81,84,73,30,81,0.36,124,8.00,7.00,-1040.00
487,1589372576777,0,0,-3,0,0,0,81,84,73,30,81,0.58,124,-39.00,-26.00,-1042.00
488,1589372576782,0,0,-3,0,0,0,81,84,72,30,81,0.45,124,54.00,2.00,-877.00
489,1589372576787,0,0,-3,0,0,0,81,84,72,30,81,0.40,124,-5.00,-1.00,-1052.00
490,1589372576792,0,0,-3,0,0,0,82,84,72,30,81,0.43,124,24.00,-9.00,-1009.00
491,1589372576797,0,0,-3,0,0,0,82,84,72,30,81,0.65,124,-8.00,-14.00,-1039.00
492,1589372576803,0,0,-3,0,0,0,82,84,73,30,81,0.27,124,-5.00,-13.00,-1088.00
493,1589372576808,0,0,-3,0,0,0,82,84,73,30,80,0.41,124,5.00,-15.00,-922.00
494,1589372576813,0,0,-3,0,0,0,82,84,74,30,80,0.51,124,31.00,-3.00,-977.00
495,1589372576818,0,0,-3,0,0,0,82,84,75,30,80,0.39,124,-11.00,-11.00,-1003.00
496,1589372576823,0,0,-3,0,0,0,82,84,76,30,80,0.56,125,2.00,-9.00,-940.00
497,1589372576828,0,0,-3,0,0,0,82,84,77,30,80,0.57,125,2.00,-4.00,-1003.00
498,1589372576833,0,0,-3,0,0,0,82,84,78,40,80,0.48,125,0.00,3.00,-1008.00
499,1589372576838,0,0,-3,0,0,0,82,84,79,40,80,0.54,125,8.00,-13.00,-983.00
500,1589372576843,0,0,-3,0,0,0,82,84,79,40,80,0.47,125,7.00,-2.00,-972.00
501,1589372576848,0,0,-3,0,0,0,82,84,80,40,80,0.49,125,4.00,-14.00,-999.00
502,1589372576853,0,0,-3,0,0,0,82,84,81,40,80,0.36,125,5.00,-1.00,-1005.00
503,1589372576858,0,0,-3,0,0,0,82,84,82,40,80,0.49,125,11.00,-10.00,-989.00
504,1589372576864,0,0,-3,0,0,0,82,84,82,40,80,0.78,125,-34.00,-4.00,-1040.00
505,1589372576870,0,0,-3,0,0,0,82,84,83,40,80,0.11,125,20.00,-12.00,-931.00
506,1589372576875,1,0,-3,0,0,0,82,84,84,40,80,0.86,126,1.00,-12.00,-1023.00
507,1589372576880,1,0,-3,0,0,0,82,84,85,40,80,0.52,126,-20.00,-27.00,-1076.00
508,1589372576886,1,0,-3,0,0,0,82,84,84,40,80,0.72,126,-3.00,-19.00,-992.00
509,1589372576891,0,0,-3,0,0,0,82,84,83,40,80,0.52,126,81.00,18.00,-848.00
510,1589372576896,0,0,-3,0,0,0,81,84,83,40,80,0.65,126,35.00,5.00,-912.00
511,1589372576901,0,0,-3,0,0,0,81,84,82,40,80,0.54,126,-12.00,-4.00,-983.00
512,1589372576906,0,0,-3,0,0,0,81,84,81,40,80,0.74,126,31.00,13.00,-980.00
513,1589372576911,0,0,-3,0,0,0,81,84,80,40,80,0.44,126,39.00,19.00,-924.00
514,1589372576916,0,0,-3,0,0,0,81,84,79,40,80,0.22,126,10.00,6.00,-1036.00
515,1589372576922,0,0,-3,0,0,0,81,84,78,40,80,0.22,126,3.00,-7.00,-967.00
516,1589372576927,0,0,-3,0,0,0,81,84,78,40,80,0.38,127,0.00,-6.00,-1042.00
517,1589372576932,0,0,-3,0,0,0,81,84,78,40,80,0.36,127,10.00,6.00,-1046.00
518,1589372576937,0,0,-3,0,0,0,81,84,77,30,80,0.09,127,32.00,0.00,-982.00
519,1589372576942,0,0,-3,0,0,0,81,84,77,30,80,0.42,127,-8.00,-13.00,-993.00
520,1589372576947,0,0,-3,0,0,0,81,84,76,30,80,0.37,127,-16.00,20.00,-1060.00
521,1589372576953,0,0,-3,0,0,0,81,84,77,30,80,0.11,127,-21.00,-8.00,-1052.00
522,1589372576958,0,0,-3,0,0,0,81,84,76,30,80,0.40,127,34.00,15.00,-951.00
523,1589372576963,0,0,-3,0,0,0,81,84,76,30,80,0.54,127,-28.00,2.00,-1088.00
524,1589372576968,0,0,-3,0,0,0,81,84,75,30,80,0.42,127,-1.00,-4.00,-971.00
525,1589372576973,0,0,-3,0,0,0,81,84,75,30,80,0.27,127,6.00,10.00,-1066.00
526,1589372576978,0,0,-3,0,0,0,81,84,75,30,80,0.39,128,6.00,-8.00,-961.00
527,1589372576983,0,0,-3,0,0,0,81,84,75,30,80,0.43,128,2.00,-7.00,-1038.00
528,1589372576988,0,0,-3,0,0,0,81,84,75,30,80,0.54,128,-16.00,-4.00,-1070.00
529,1589372576993,0,0,-3,0,0,0,81,84,75,30,80,0.42,128,8.00,-1.00,-1027.00
530,1589372576998,0,0,-3,0,0,0,81,84,74,30,80,0.58,128,-14.00,-8.00,-1052.00
531,1589372577004,0,0,-3,0,0,0,81,84,76,30,80,0.38,128,-4.00,1.00,-997.00
532,1589372577009,0,0,-3,0,0,0,81,84,76,30,80,0.41,128,24.00,-7.00,-915.00
533,1589372577014,0,0,-3,0,0,0,81,84,77,30,80,0.09,128,20.00,6.00,-943.00
534,1589372577019,0,0,-3,0,0,0,81,84,77,40,80,0.67,128,-34.00,-8.00,-1060.00
535,1589372577024,0,0,-3,0,0,0,81,84,77,40,80,0.51,129,0.00,-8.00,-996.00
536,1589372577029,0,0,-3,0,0,0,81,84,78,40,80,0.43,129,25.00,7.00,-938.00
537,1589372577034,0,0,-3,0,0,0,81,84,78,40,80,0.62,129,18.00,-7.00,-982.00
538,1589372577040,0,0,-3,0,0,0,81,84,79,40,80,0.40,129,-27.00,-21.00,-1103.00
539,1589372577045,0,0,-3,0,0,0,81,84,79,40,80,0.33,129,14.00,8.00,-974.00
540,1589372577050,0,0,-3,0,0,0,81,84,79,40,80,0.41,129,-2.00,6.00,-1003.00
541,1589372577055,0,0,-3,0,0,0,81,84,79,40,80,0.31,129,0.00,8.00,-1065.00
542,1589372577060,0,0,-3,0,0,0,81,84,80,40,80,0.49,129,-2.00,0.00,-1011.00
543,1589372577065,0,0,-3,0,0,0,81,84,80,40,80,0.21,129,4.00,-3.00,-1040.00
544,1589372577070,0,0,-3,0,0,0,81,84,80,40,80,0.21,129,-37.00,-3.00,-1049.00
545,1589372577075,0,0,-3,0,0,0,81,84,80,40,80,0.35,130,0.00,0.00,-940.00
546,1589372577080,0,0,-3,0,0,0,81,84,79,40,80,-0.11,130,44.00,0.00,-920.00
547,1589372577086,0,0,-3,0,0,0,81,84,79,40,80,0.08,130,23.00,-24.00,-988.00
548,1589372577091,0,0,-3,0,0,0,81,84,79,40,80,0.22,130,-24.00,-17.00,-981.00
549,1589372577096,0,0,-3,0,0,0,81,84,78,40,80,0.46,130,-6.00,-11.00,-1058.00
550,1589372577101,0,0,-3,0,0,0,81,84,77,40,80,0.66,130,54.00,5.00,-899.00
551,1589372577106,0,0,-3,0,0,0,81,84,77,40,80,0.42,130,50.00,7.00,-847.00
552,1589372577111,0,0,-3,0,0,0,81,84,78,40,80,0.33,130,32.00,6.00,-945.00
553,1589372577117,0,0,-3,0,0,0,81,84,78,40,80,0.52,130,18.00,-5.00,-966.00
554,1589372577122,0,0,-3,0,0,0,81,84,78,40,80,0.47,130,-48.00,-19.00,-1043.00
555,1589372577127,0,0,-3,0,0,0,81,84,78,40,80,0.23,131,10.00,9.00,-988.00
556,1589372577132,0,0,-3,0,0,0,81,84,77,40,80,0.43,131,-46.00,-6.00,-1167.00
557,1589372577137,0,0,-3,0,0,0,81,84,77,30,80,0.14,131,-9.00,1.00,-1042.00
558,1589372577142,1,0,-3,0,0,0,81,84,77,30,80,0.36,131,24.00,46.00,-1023.00
559,1589372577148,0,0,-3,0,0,0,81,84,77,30,80,0.34,131,58.00,35.00,-986.00
560,1589372577153,0,0,-3,0,0,0,81,84,76,30,80,-0.00,131,61.00,0.00,-872.00
561,1589372577158,0,0,-3,0,0,0,81,84,76,30,80,0.25,131,34.00,10.00,-909.00
562,1589372577163,0,0,-3,0,0,0,81,84,76,30,80,-0.10,131,60.00,7.00,-918.00
563,1589372577168,0,0,-3,0,0,0,81,84,77,30,79,0.02,131,19.00,14.00,-985.00
564,1589372577173,0,0,-3,0,0,0,81,84,77,30,79,0.33,131,-41.00,-22.00,-1108.00
565,1589372577178,0,0,-3,0,0,0,81,84,77,30,79,0.12,132,5.00,-6.00,-983.00
566,1589372577183,0,0,-3,0,0,0,81,84,78,30,79,0.13,132,1.00,-15.00,-932.00
567,1589372577189,0,0,-3,0,0,0,81,84,79,40,79,-0.01,132,-16.00,-7.00,-1066.00
568,1589372577194,0,0,-2,0,0,0,81,84,80,40,79,0.32,132,10.00,-4.00,-987.00
569,1589372577199,0,0,-2,0,0,0,81,84,81,40,79,-0.02,132,-8.00,3.00,-1000.00
570,1589372577204,0,0,-2,0,0,0,80,84,82,40,79,-0.07,132,8.00,-13.00,-972.00
571,1589372577209,0,0,-2,0,0,0,80,84,83,40,79,-0.13,132,-5.00,5.00,-1019.00
572,1589372577214,0,0,-2,0,0,0,80,84,84,40,79,0.23,132,4.00,2.00,-959.00
573,1589372577219,0,0,-3,0,0,0,80,84,85,40,79,-0.02,132,3.00,-5.00,-962.00
574,1589372577224,0,0,-3,0,0,0,80,84,86,40,79,0.19,132,-10.00,-15.00,-971.00
575,1589372577229,0,0,-3,0,0,0,80,84,87,40,79,0.46,133,-17.00,-10.00,-960.00
576,1589372577235,0,0,-3,0,0,0,80,84,88,40,79,0.14,133,29.00,-12.00,-963.00
577,1589372577240,0,0,-3,0,0,0,80,84,88,40,79,0.23,133,23.00,7.00,-960.00
578,1589372577245,0,0,-3,0,0,0,80,84,89,40,79,0.09,133,-12.00,-7.00,-1000.00
579,1589372577250,0,0,-3,0,0,0,80,84,89,40,79,0.16,133,47.00,5.00,-958.00
580,1589372577255,1,0,-3,0,0,0,81,83,89,40,79,0.21,133,5.00,1.00,-987.00
581,1589372577260,1,0,-3,0,0,0,81,83,89,40,79,0.19,133,21.00,8.00,-996.00
582,1589372577265,1,0,-3,0,0,0,81,83,89,40,79,0.37,133,-2.00,-5.00,-1096.00
583,1589372577271,1,0,-3,0,0,0,81,83,89,40,79,0.29,133,-1.00,-2.00,-1010.00
584,1589372577276,1,0,-3,0,0,0,81,83,89,40,79,0.48,133,13.00,-8.00,-971.00
585,1589372577281,1,0,-3,0,0,0,81,83,89,40,79,0.26,134,6.00,-6.00,-1002.00
586,1589372577286,1,0,-3,0,0,0,81,83,88,40,79,0.20,134,-2.00,-6.00,-1039.00
587,1589372577291,1,0,-3,0,0,0,81,83,88,40,79,0.25,134,6.00,-16.00,-984.00
588,1589372577296,1,0,-3,0,0,0,81,83,87,40,79,-0.01,134,9.00,-6.00,-1002.00
589,1589372577301,1,0,-3,0,0,0,81,83,87,40,79,0.28,134,14.00,-4.00,-997.00
590,1589372577307,1,0,-3,0,0,0,81,83,86,40,79,0.28,134,45.00,19.00,-947.00
591,1589372577312,1,0,-3,0,0,0,81,83,85,40,79,0.33,134,-16.00,4.00,-1043.00
592,1589372577317,1,0,-3,0,0,0,81,83,84,40,79,0.46,134,2.00,-6.00,-1015.00
593,1589372577322,0,0,-3,0,0,0,81,83,83,40,79,0.20,134,16.00,4.00,-996.00
594,1589372577327,0,0,-3,0,0,0,81,83,83,40,79,0.29,134,11.00,-5.00,-1008.00
595,1589372577332,1,0,-3,0,0,0,81,83,83,40,79,0.70,135,23.00,-2.00,-1000.00
596,1589372577337,0,0,-3,0,0,0,81,83,83,40,79,0.25,135,4.00,1.00,-1010.00
597,1589372577343,0,0,-3,0,0,0,81,83,82,40,79,0.38,135,0.00,1.00,-1045.00
598,1589372577348,0,0,-3,0,0,0,81,83,82,40,79,0.39,135,-12.00,-3.00,-958.00
599,1589372577353,0,0,-3,0,0,0,81,83,82,40,79,0.46,135,-33.00,-10.00,-1065.00
600,1589372577358,0,0,-3,0,0,0,81,84,81,40,79,0.28,135,-6.00,7.00,-1016.00
601,1589372577363,0,0,-3,0,0,0,81,84,81,40,79,0.11,135,5.00,11.00,-1044.00
602,1589372577369,0,0,-3,0,0,0,81,84,80,40,79,0.60,135,-18.00,0.00,-1027.00
603,1589372577374,0,0,-3,0,0,0,81,84,80,40,79,0.28,135,0.00,5.00,-1011.00
604,1589372577379,0,0,-3,0,0,0,81,84,79,40,79,0.37,135,-26.00,10.00,-1014.00
605,1589372577384,0,0,-2,0,0,0,81,84,79,40,79,0.44,136,8.00,-1.00,-965.00
606,1589372577389,0,0,-2,0,0,0,81,84,79,40,79,0.62,136,2.00,6.00,-1040.00
607,1589372577394,0,0,-2,0,0,0,81,84,78,40,79,0.21,136,-15.00,7.00,-1061.00
608,1589372577399,0,0,-2,0,0,0,81,84,78,40,79,0.28,136,-1.00,11.00,-1036.00
609,1589372577404,0,0,-3,0,0,0,81,84,78,40,79,0.39,136,-5.00,7.00,-1053.00
610,1589372577410,0,0,-3,0,0,0,81,83,78,40,79,0.36,136,-4.00,0.00,-1018.00
611,1589372577415,0,0,-3,0,0,0,81,83,79,40,79,0.07,136,22.00,1.00,-984.00
612,1589372577420,0,0,-3,0,0,0,81,83,79,40,79,0.03,136,24.00,3.00,-982.00
613,1589372577425,0,0,-3,0,0,0,81,83,79,40,79,0.37,136,24.00,-3.00,-919.00
614,1589372577430,0,0,-3,0,0,0,81,83,79,40,79,0.31,136,15.00,4.00,-989.00
615,1589372577435,0,0,-3,0,0,0,81,83,78,40,79,0.33,137,-15.00,-1.00,-1002.00
616,1589372577440,0,0,-3,0,0,0,81,83,78,40,79,0.14,137,10.00,4.00,-1046.00
617,1589372577446,0,0,-3,0,0,0,81,83,78,40,79,0.31,137,-4.00,3.00,-979.00
618,1589372577451,0,0,-3,0,0,0,81,83,77,40,79,0.39,137,1.00,-4.00,-987.00
619,1589372577456,0,0,-3,0,0,0,81,83,77,40,79,0.11,137,17.00,19.00,-1011.00
620,1589372577461,0,0,-3,0,0,0,81,83,78,40,79,0.28,137,20.00,23.00,-1024.00
621,1589372577467,0,0,-3,0,0,0,81,83,78,40,79,0.49,137,18.00,10.00,-977.00
622,1589372577472,0,0,-3,0,0,0,81,83,78,40,78,0.15,137,-13.00,9.00,-1019.00
623,1589372577478,0,0,-3,0,0,0,81,83,78,40,78,0.46,137,7.00,12.00,-963.00
624,1589372577483,0,-1,-3,0,0,0,81,83,78,40,78,0.46,137,12.00,-10.00,-985.00
625,1589372577488,0,0,-3,0,0,0,81,83,77,40,78,0.59,138,14.00,17.00,-1010.00
626,1589372577493,0,0,-3,0,0,0,81,83,77,40,78,0.49,138,0.00,8.00,-1041.00
627,1589372577499,0,0,-3,0,0,0,81,83,77,40,78,0.45,138,6.00,2.00,-991.00
628,1589372577504,0,0,-3,0,0,0,81,83,77,30,78,0.37,138,-1.00,-3.00,-1043.00
629,1589372577509,0,0,-3,0,0,0,81,83,77,30,78,0.39,138,2.00,-2.00,-989.00
630,1589372577514,0,0,-3,0,0,0,81,84,76,30,78,0.66,138,-3.00,-1.00,-1006.00
631,1589372577519,0,0,-3,0,0,0,81,84,76,30,78,0.42,138,-10.00,7.00,-1005.00
632,1589372577524,0,0,-3,0,0,0,81,84,76,30,78,0.31,138,0.00,10.00,-1015.00
633,1589372577529,0,0,-3,0,0,0,81,84,76,30,78,0.22,138,8.00,-4.00,-982.00
634,1589372577535,0,0,-3,0,0,0,81,84,77,30,78,0.32,138,13.00,1.00,-999.00
635,1589372577540,0,0,-3,0,0,0,81,84,77,30,78,0.37,139,15.00,5.00,-1035.00
636,1589372577545,0,0,-3,0,0,0,81,84,77,40,78,0.33,139,16.00,6.00,-990.00
637,1589372577550,0,0,-3,0,0,0,81,84,78,40,78,0.25,139,14.00,4.00,-1013.00
638,1589372577556,0,0,-3,0,0,0,81,84,78,40,78,0.47,139,4.00,-8.00,-978.00
639,1589372577561,0,0,-3,0,0,0,81,84,78,40,78,0.05,139,14.00,0.00,-933.00
640,1589372577566,0,0,-3,0,0,0,81,83,78,40,78,0.09,139,-4.00,-15.00,-1038.00
641,1589372577571,0,0,-3,0,0,0,81,83,78,40,78,0.73,139,4.00,-9.00,-1019.00
642,1589372577576,0,0,-3,0,0,0,81,83,79,40,78,0.64,139,18.00,-7.00,-996.00
643,1589372577581,0,0,-3,0,0,0,81,83,79,40,78,0.53,139,20.00,0.00,-1046.00
644,1589372577587,0,0,-3,0,0,0,81,83,79,40,78,0.23,139,30.00,2.00,-1052.00
645,1589372577592,0,0,-3,0,0,0,81,83,80,40,78,0.47,140,5.00,-2.00,-1003.00
646,1589372577597,0,0,-3,0,0,0,81,83,80,40,78,0.39,140,14.00,-15.00,-1030.00
647,1589372577602,0,0,-3,0,0,0,81,83,80,40,78,0.42,140,0.00,-13.00,-998.00
648,1589372577607,0,0,-3,0,0,0,81,83,80,40,78,0.29,140,-6.00,0.00,-1040.00
649,1589372577612,0,0,-3,0,0,0,81,83,80,40,78,0.55,140,3.00,-7.00,-974.00
650,1589372577618,0,0,-3,0,0,0,81,83,79,40,78,0.45,140,-6.00,-6.00,-984.00
651,1589372577623,0,0,-3,0,0,0,81,83,78,40,78,0.49,140,3.00,-5.00,-975.00
652,1589372577629,0,0,-3,0,0,0,81,83,77,40,78,0.73,140,8.00,-6.00,-991.00
653,1589372577634,0,0,-3,0,0,0,81,83,77,40,78,0.62,140,-3.00,-5.00,-1013.00
654,1589372577639,0,0,-3,0,0,0,81,83,76,40,78,0.29,140,3.00,0.00,-1029.00
655,1589372577644,0,0,-3,0,0,0,81,83,76,30,78,0.13,141,-17.00,1.00,-1067.00
656,1589372577650,0,0,-3,0,0,0,81,83,75,30,78,0.25,141,15.00,-8.00,-1042.00
657,1589372577655,0,0,-3,0,0,0,81,83,75,30,78,0.18,141,5.00,7.00,-1036.00
658,1589372577660,0,0,-3,0,0,0,81,83,75,30,78,0.25,141,9.00,5.00,-1046.00
659,1589372577665,0,0,-3,0,0,0,81,83,75,30,78,0.48,141,9.00,-27.00,-1035.00
660,1589372577670,0,0,-3,0,0,0,81,83,75,30,78,0.51,141,24.00,-23.00,-953.00
661,1589372577676,0,0,-3,0,0,0,81,83,75,30,78,0.15,141,-15.00,-13.00,-1036.00
662,1589372577681,0,0,-3,0,0,0,81,83,76,30,78,0.69,141,22.00,14.00,-1062.00
663,1589372577686,0,0,-3,0,0,0,81,83,76,30,78,0.49,141,7.00,-22.00,-957.00
664,1589372577691,0,0,-3,0,0,0,81,83,76,30,78,0.36,141,20.00,-4.00,-931.00
665,1589372577696,0,0,-3,0,0,0,81,83,76,30,78,0.39,142,22.00,7.00,-1035.00
666,1589372577701,0,0,-3,0,0,0,81,83,76,30,78,0.26,142,-10.00,-21.00,-1048.00
667,1589372577707,0,0,-3,0,0,0,81,83,76,30,78,0.52,142,0.00,-8.00,-997.00
668,1589372577712,0,0,-3,0,0,0,81,83,76,30,78,0.06,142,12.00,-7.00,-1027.00
669,1589372577717,0,0,-3,0,0,0,81,83,77,30,78,0.14,142,7.00,-5.00,-1021.00
670,1589372577722,0,0,-3,0,0,0,80,83,77,30,78,0.34,142,6.00,0.00,-1047.00
671,1589372577727,0,0,-3,0,0,0,80,83,77,30,78,0.09,142,-9.00,-13.00,-1003.00
672,1589372577732,0,0,-3,0,0,0,80,83,78,30,78,0.20,142,22.00,22.00,-962.00
673,1589372577738,0,0,-3,0,0,0,80,83,79,30,78,0.08,142,-43.00,-22.00,-1031.00
674,1589372577743,0,0,-3,0,0,0,80,83,79,40,78,0.45,142,25.00,-26.00,-949.00
675,1589372577748,0,0,-3,0,0,0,80,83,79,40,78,0.43,143,7.00,-1.00,-989.00
676,1589372577753,0,0,-3,0,0,0,80,83,79,40,78,0.32,143,27.00,-12.00,-954.00
677,1589372577759,0,0,-3,0,0,0,80,83,80,40,78,0.31,143,0.00,-27.00,-970.00
678,1589372577764,0,0,-3,0,0,0,80,83,80,40,78,0.50,143,15.00,14.00,-1009.00
679,1589372577769,0,0,-3,0,0,0,80,83,80,40,78,0.20,143,6.00,-26.00,-966.00
680,1589372577774,0,0,-3,0,0,0,80,83,80,40,78,0.05,143,12.00,-13.00,-966.00
681,1589372577779,0,0,-3,0,0,0,80,83,79,40,78,0.42,143,0.00,-20.00,-1009.00
682,1589372577785,0,0,-3,0,0,0,80,83,79,40,78,0.64,143,-49.00,-13.00,-1057.00
683,1589372577790,0,0,-3,0,0,0,80,83,78,40,78,0.65,143,4.00,3.00,-1039.00
684,1589372577795,0,0,-3,0,0,0,80,83,78,40,78,0.25,143,-14.00,6.00,-1042.00
685,1589372577800,0,0,-3,0,0,0,80,83,78,40,78,0.22,144,14.00,-8.00,-1011.00
686,1589372577805,0,0,-3,0,0,0,80,83,77,40,78,0.48,144,2.00,-1.00,-1040.00
687,1589372577810,0,0,-3,0,0,0,80,83,77,40,78,0.29,144,-3.00,7.00,-1036.00
688,1589372577816,0,0,-3,0,0,0,80,83,77,40,78,0.61,144,1.00,-10.00,-984.00
689,1589372577821,0,0,-3,0,0,0,80,83,77,40,78,0.51,144,-8.00,-9.00,-993.00
690,1589372577826,0,0,-3,0,0,0,80,83,76,40,78,0.49,144,16.00,-1.00,-907.00
691,1589372577831,0,0,-3,0,0,0,80,83,76,40,78,0.15,144,-17.00,-26.00,-1002.00
692,1589372577836,0,0,-3,0,0,0,80,83,75,40,78,0.40,144,35.00,5.00,-918.00
693,1589372577842,0,0,-3,0,0,0,80,83,75,30,78,0.36,144,4.00,-3.00,-997.00
694,1589372577847,0,0,-3,0,0,0,80,83,74,30,78,0.61,144,20.00,4.00,-997.00
695,1589372577852,0,0,-3,0,0,0,80,83,74,30,78,0.42,145,22.00,5.00,-967.00
696,1589372577857,0,0,-3,0,0,0,80,83,74,30,78,0.19,145,-4.00,1.00,-1022.00
697,1589372577862,0,0,-3,0,0,0,80,83,73,30,78,0.20,145,-1.00,2.00,-1013.00
698,1589372577868,0,0,-3,0,0,0,80,83,74,30,78,0.57,145,3.00,11.00,-1007.00
699,1589372577873,0,0,-3,0,0,0,80,83,74,30,78,0.16,145,-3.00,-5.00,-938.00
700,1589372577878,0,0,-3,0,0,0,80,83,74,30,78,0.35,145,-23.00,6.00,-1020.00
701,1589372577883,0,0,-3,0,0,0,80,83,74,30,78,0.71,145,-5.00,5.00,-975.00
702,1589372577888,0,0,-3,0,0,0,80,83,75,30,77,0.52,145,-9.00,3.00,-1016.00
703,1589372577894,0,0,-3,0,0,0,80,83,75,30,77,0.29,145,0.00,2.00,-1030.00
704,1589372577899,0,0,-3,0,0,0,80,83,75,30,77,0.34,146,-7.00,-5.00,-992.00
705,1589372577904,0,0,-3,0,0,0,80,83,75,30,77,0.42,146,15.00,0.00,-1002.00
706,1589372577909,0,0,-3,0,0,0,80,83,75,30,77,0.41,146,7.00,1.00,-1012.00
707,1589372577914,0,0,-3,0,0,0,80,83,75,30,77,0.58,146,10.00,-8.00,-993.00
708,1589372577920,0,0,-3,0,0,0,80,83,76,30,77,0.17,146,8.00,-5.00,-984.00
709,1589372577925,0,0,-3,0,0,0,80,83,76,30,77,0.55,146,31.00,-11.00,-972.00
710,1589372577930,0,0,-3,0,0,0,81,83,76,30,77,0.48,146,8.00,2.00,-1055.00
711,1589372577935,0,0,-3,0,0,0,81,83,77,30,77,0.50,146,0.00,-12.00,-1024.00
712,1589372577940,0,0,-3,0,0,0,81,83,77,30,77,0.40,146,58.00,12.00,-905.00
713,1589372577946,0,0,-3,0,0,0,81,83,77,30,77,0.50,146,20.00,12.00,-966.00
714,1589372577951,0,0,-3,0,0,0,81,83,78,30,77,0.13,147,29.00,-5.00,-1011.00
715,1589372577956,0,0,-3,0,0,0,81,83,78,30,77,0.28,147,7.00,5.00,-1027.00
716,1589372577961,0,0,-3,0,0,0,81,83,79,40,77,0.18,147,-1.00,-1.00,-1029.00
717,1589372577967,0,0,-3,0,0,0,81,83,80,40,77,0.21,147,12.00,-36.00,-964.00
718,1589372577972,0,0,-3,0,0,0,81,83,80,40,77,0.72,147,16.00,3.00,-967.00
719,1589372577977,0,0,-3,0,0,0,81,83,80,40,77,0.50,147,-5.00,-10.00,-1040.00
720,1589372577982,0,0,-3,0,0,0,81,83,81,40,77,0.39,147,17.00,-10.00,-962.00
721,1589372577988,0,0,-3,0,0,0,81,83,81,40,77,0.02,147,19.00,5.00,-1006.00
722,1589372577993,0,0,-3,0,0,0,81,83,81,40,77,0.26,147,24.00,8.00,-967.00
723,1589372577998,0,0,-3,0,0,0,81,83,81,40,77,0.35,147,23.00,4.00,-1003.00
724,1589372578003,0,0,-3,0,0,0,81,83,81,40,77,0.48,148,10.00,0.00,-971.00
725,1589372578008,0,0,-3,0,0,0,81,83,81,40,77,0.26,148,44.00,11.00,-950.00
726,1589372578014,0,0,-3,0,0,0,81,83,81,40,77,0.37,148,-10.00,6.00,-1018.00
727,1589372578019,0,0,-3,0,0,0,81,83,81,40,77,0.24,148,7.00,0.00,-998.00
728,1589372578024,0,0,-3,0,0,0,81,83,81,40,77,0.29,148,56.00,-1.00,-867.00
729,1589372578029,0,0,-3,0,0,0,81,83,81,40,77,0.30,148,-12.00,1.00,-1094.00
730,1589372578034,0,0,-3,0,0,0,80,83,80,40,77,0.43,148,5.00,0.00,-965.00
731,1589372578040,0,0,-3,0,0,0,80,83,79,40,77,0.62,148,43.00,6.00,-983.00
732,1589372578045,0,0,-3,0,0,0,80,83,79,40,77,0.44,148,-25.00,-16.00,-1036.00
733,1589372578050,0,0,-3,0,0,0,80,83,79,40,77,0.16,148,24.00,-12.00,-983.00
734,1589372578055,0,0,-3,0,0,0,80,83,79,40,77,-0.02,149,57.00,0.00,-938.00
735,1589372578060,0,0,-3,0,0,0,80,83,78,40,77,0.46,149,-6.00,10.00,-1059.00
736,1589372578066,0,0,-3,0,0,0,80,83,78,40,77,0.25,149,5.00,-4.00,-1060.00
737,1589372578072,0,1,-3,0,0,0,80,83,78,40,77,0.19,149,0.00,-1.00,-1026.00
738,1589372578077,0,0,-3,0,0,0,80,83,78,40,77,0.42,149,8.00,-8.00,-960.00
739,1589372578083,0,0,-3,0,0,0,80,83,78,40,77,0.54,149,8.00,-15.00,-975.00
740,1589372578088,0,0,-3,0,0,0,80,83,78,30,77,0.23,149,16.00,-4.00,-998.00
741,1589372578093,0,0,-3,0,0,0,80,83,77,30,77,0.40,149,-11.00,-4.00,-1002.00
742,1589372578099,0,0,-3,0,0,0,80,83,78,30,77,0.16,149,-17.00,-1.00,-1036.00
743,1589372578104,0,0,-3,0,0,0,80,83,77,30,77,0.20,149,-18.00,4.00,-1019.00
744,1589372578109,0,0,-3,0,0,0,80,83,78,30,77,0.47,150,9.00,-5.00,-953.00
745,1589372578114,0,0,-3,0,0,0,80,83,78,40,77,0.76,150,8.00,-2.00,-991.00
746,1589372578120,0,0,-3,0,0,0,80,83,78,40,77,0.31,150,3.00,6.00,-985.00
747,1589372578125,0,0,-3,0,0,0,80,83,78,40,77,0.40,150,0.00,-1.00,-1006.00
748,1589372578130,0,0,-2,0,0,0,80,83,78,40,77,0.31,150,-1.00,-6.00,-989.00
749,1589372578136,0,0,-2,0,0,0,80,83,79,40,77,0.14,150,4.00,0.00,-952.00
750,1589372578141,0,0,-2,0,0,0,80,84,79,40,77,0.24,150,-24.00,5.00,-1035.00
751,1589372578146,0,0,-3,0,0,0,80,84,79,40,77,0.26,150,-4.00,5.00,-1018.00
752,1589372578152,0,0,-3,0,0,0,80,84,79,40,77,0.20,150,11.00,14.00,-979.00
753,1589372578157,0,0,-3,0,0,0,80,84,79,40,77,0.14,150,2.00,-3.00,-994.00
754,1589372578162,0,0,-3,0,0,0,80,84,79,40,77,0.29,151,19.00,-10.00,-936.00
755,1589372578167,0,0,-3,0,0,0,80,84,79,40,77,0.31,151,-3.00,-16.00,-959.00
756,1589372578173,0,0,-3,0,0,0,80,84,79,40,77,0.43,151,0.00,-13.00,-957.00
757,1589372578178,0,0,-3,0,0,0,80,84,78,40,77,0.32,151,1.00,-3.00,-976.00
758,1589372578183,0,0,-3,0,0,0,80,84,78,40,77,0.08,151,17.00,-9.00,-975.00
759,1589372578188,0,0,-3,0,0,0,80,84,78,40,77,0.33,151,1.00,-1.00,-971.00
760,1589372578194,0,0,-3,0,0,0,80,83,78,40,77,0.42,151,23.00,-4.00,-957.00
761,1589372578199,0,0,-3,0,0,0,80,83,78,40,77,0.42,151,-20.00,-16.00,-1001.00
762,1589372578204,0,0,-3,0,0,0,80,83,78,40,77,-0.04,151,7.00,1.00,-1018.00
763,1589372578209,0,0,-3,0,0,0,80,83,78,40,77,0.14,151,-13.00,-12.00,-1052.00
764,1589372578215,0,0,-3,0,0,0,80,83,78,40,77,0.51,152,-4.00,-11.00,-970.00
765,1589372578220,0,0,-3,0,0,0,80,83,78,40,77,0.64,152,21.00,-2.00,-924.00
766,1589372578225,0,0,-3,0,0,0,80,83,79,40,77,-0.05,152,-24.00,-2.00,-1016.00
767,1589372578230,0,0,-3,0,0,0,80,83,79,40,77,0.46,152,16.00,-17.00,-965.00
768,1589372578236,0,0,-3,0,0,0,80,83,79,40,77,0.37,152,-1.00,-5.00,-959.00
769,1589372578241,0,0,-3,0,0,0,80,83,80,40,77,0.36,152,6.00,-76.00,-974.00
770,1589372578246,0,1,-3,0,0,0,81,83,80,40,77,0.67,152,-4.00,-29.00,-1003.00
771,1589372578251,0,0,-3,0,0,0,81,83,81,40,77,0.63,152,-14.00,-12.00,-1006.00
772,1589372578257,0,0,-3,0,0,0,81,83,81,40,77,0.37,152,-4.00,-5.00,-1009.00
773,1589372578262,0,0,-3,0,0,0,81,83,82,40,77,0.40,152,7.00,-2.00,-976.00
774,1589372578267,0,0,-3,0,0,0,81,83,82,40,77,0.66,153,3.00,-2.00,-1023.00
775,1589372578273,0,0,-3,0,0,0,81,83,82,40,77,0.34,153,-1.00,-14.00,-1046.00
776,1589372578278,0,0,-3,0,0,0,81,83,82,40,77,0.09,153,5.00,-19.00,-988.00
777,1589372578283,0,0,-3,0,0,0,81,83,82,40,77,0.12,153,6.00,-3.00,-991.00
778,1589372578289,0,0,-3,0,0,0,81,83,82,40,77,0.57,153,4.00,-11.00,-997.00
779,1589372578294,0,0,-3,0,0,0,81,83,82,40,77,0.42,153,21.00,-8.00,-1004.00
780,1589372578299,0,0,-3,0,0,0,80,83,81,40,77,0.43,153,-14.00,-21.00,-1031.00
781,1589372578304,0,0,-3,0,0,0,80,83,80,40,76,0.61,153,-12.00,5.00,-1008.00
782,1589372578310,0,0,-3,0,0,0,80,83,79,40,76,0.60,153,19.00,-3.00,-959.00
783,1589372578315,0,0,-3,0,0,0,80,83,79,40,76,0.48,153,17.00,-12.00,-971.00
784,1589372578320,0,0,-3,0,0,0,80,83,78,40,76,0.34,154,-24.00,-12.00,-1066.00
785,1589372578326,0,0,-3,0,0,0,80,83,78,40,76,0.35,154,26.00,-3.00,-955.00
786,1589372578331,0,0,-3,0,0,0,80,83,77,40,76,0.14,154,-8.00,0.00,-1066.00
787,1589372578336,0,0,-3,0,0,0,80,83,77,30,76,0.49,154,-4.00,-26.00,-1042.00
788,1589372578342,0,0,-3,0,0,0,80,83,76,30,76,0.08,154,4.00,8.00,-1020.00
789,1589372578347,0,0,-3,0,0,0,80,83,76,30,76,0.51,154,-20.00,-1.00,-1047.00
790,1589372578353,0,0,-3,0,0,0,80,83,76,30,76,0.07,154,14.00,6.00,-969.00
791,1589372578358,0,0,-3,0,0,0,80,83,76,30,76,0.44,154,0.00,11.00,-1011.00
792,1589372578363,0,0,-3,0,0,0,80,83,76,30,76,0.27,154,2.00,0.00,-915.00
793,1589372578369,0,0,-3,0,0,0,80,83,77,30,76,0.32,154,-7.00,-12.00,-980.00
794,1589372578374,0,0,-3,0,0,0,80,83,77,40,76,0.45,155,17.00,4.00,-996.00
795,1589372578379,0,0,-2,0,0,0,80,83,77,40,76,0.14,155,-6.00,11.00,-1046.00
796,1589372578385,0,0,-3,0,0,0,80,83,78,40,76,0.29,155,1.00,-2.00,-963.00
797,1589372578390,0,0,-3,0,0,0,80,83,78,40,76,0.23,155,6.00,0.00,-987.00
798,1589372578395,0,0,-3,0,0,0,80,83,78,40,76,0.17,155,10.00,-3.00,-977.00
799,1589372578401,0,0,-3,0,0,0,80,83,79,40,76,0.48,155,-41.00,-1.00,-1052.00
800,1589372578406,0,0,-3,0,0,0,80,83,79,40,76,0.66,155,11.00,0.00,-968.00
801,1589372578411,0,0,-3,0,0,0,80,83,80,40,76,0.22,155,2.00,-2.00,-1067.00
